KID,API,LEASE_NAME,WELL_NAME,ORIG_OPERATOR,CURR_OPERATOR,FIELD_NAME,TOWNSHIP,TOWNSHIP_DIR,RANGE,RANGE_DIR,SECTION,SPOT,SUBDIVISION_4_SMALLEST,SUBDIVISION_3,SUBDIVISION_2,SUBDIVISION_1_LARGEST,FEET_NORTH,FEET_EAST,REFERENCE_CORNER,NAD27_LONGITUDE,NAD27_LATITUDE,COUNTY,PERMIT_DATE,SPUD_DATE,COMPLETION_DATE,PLUG_DATE,WELL_TYPE,STATUS,TOTAL_DEPTH,ELEVATION,ELEVATION_REFERENCE,PRODUCING_FORMATION
"1024011837","15-189-20021-0001","WILLIAM CUTTER","4","BEREXCO LLC","BEREXCO LLC","Cutter","31","S","35","W","1"," "," "," ","NE","NE","4620","-660","SE","-101.0699839","37.385846","Stevens","","10/29/2001","11/01/2001","","OIL","Producing","5700","2970","GL","Marmaton A And B"
"1044199238","15-175-21521-0001","MLP Young Trust 'A'","2","Oxy USA, Inc.","","Cutter","31","S","34","W","5","C"," ","W2","NW","SE","1980","-2310","SE","-101.0398898","37.3781153","Seward","","02/26/1996","02/27/1996","","GAS"," ","5750","2874","GL","Chester"
"1002950632","15-189-10076","GEORGE B. STRONG UNIT","1","MOBIL OIL","","Cutter","31","S","35","W","12","C"," "," "," ","SW","","","","-101.0813149","37.3621164","Stevens","","07/07/1961","12/31/1961","07/31/1961","D&A"," ","3718","2969","GL"," "
"1002950577","15-189-10022","WILLIAM CUTTER","3","MOBIL OIL","BEREXCO LLC","Cutter","31","S","35","W","1"," "," "," ","NE","SE","1980","-660","SE","-101.0700223","37.3785954","Stevens","","07/03/1962","08/14/1962","","OIL","Inactive Well","5858","2936","KB","Mrw U"
"1002950583","15-189-10029","CARRIE YOUNG UNIT","1","MOBIL OIL","","Cutter","31","S","35","W","11"," "," "," ","NE","NE","4620","-660","SE","-101.0881785","37.3711531","Stevens","","06/06/1962","07/07/1962","07/08/1974","GAS-P&A","Plugged and Abandoned","5750","2995","KB","Chst Sd"
"1026604405","15-189-22022-0001","Davis 'K'","1","ANADARKO PETROLEUM CORP.","Enterra Resources, LLC","Cutter","31","S","35","W","12"," "," "," ","SW","SW","673","668","SW","-101.0835247","37.3603054","Stevens","","09/09/1998","10/07/1998","","OIL","Producing","5800","2969","GL","Lansing, Chester, And Marmaton"
"1002950581","15-189-10026","SANTA FE","1","MOBIL OIL","","Cutter","31","S","35","W","1"," "," "," ","SW","NW","3300","-4620","SE","-101.0836299","37.3821516","Stevens","","12/05/1961","12/25/1961","12/25/1961","D&A","Plugged and Abandoned","5672","2936","GL"," "
"1002950575","15-189-10020","DOROTHY CULLISON","1","MOBIL OIL","","Cutter","31","S","35","W","2"," "," "," ","SW","SE","660","-1980","SE","-101.0927443","37.3748199","Stevens","11/13/1961","11/22/1961","12/18/1961","12/18/1961","D&A","Plugged and Abandoned","5777","2999","DF"," "
"1006157139","15-189-20611","Cullison 'B'","2-2","FLYNN ENERGY CORP.","Flynn Energy Corp.","Cutter","31","S","35","W","2"," ","S2","N2","SE","SW","810","1980","SW","-101.0970793","37.3751875","Stevens","06/17/1982","07/01/1982","07/13/1982","07/13/1982","D&A","Plugged and Abandoned","5880","3004","KB"," "
"1006159233","15-189-22022","Davis 'K'","1","Anadarko Petroleum Corp.","Anadarko Petroleum Corporation","Cutter","31","S","35","W","12"," "," "," ","SW","SW","660","660","SW","-101.0835576","37.3602697","Stevens","11/14/1995","01/15/1996","03/11/1996","","OIL","Recompleted","5800","2981","KB","Chester"
"1006157277","15-189-20697","CULLISON 'C'","2-3","FLYNN ENERGY CORP","Flynn Energy Corp.","Cutter","31","S","35","W","2"," "," ","NW","SW","NE","3307","-2024","SE","-101.0929337","37.3820875","Stevens","12/29/1983","01/29/1984","02/12/1984","02/12/1984","D&A","Plugged and Abandoned","5850","3004","KB"," "
"1006158413","15-189-21385","Cullison","3-7","Avalon Energy","Avalon Corporation","Cutter","31","S","35","W","3"," "," ","SE","SW","NE","2970","-1650","SE","-101.1097129","37.3809959","Stevens","09/22/1989","11/01/1989","11/11/1990","11/30/1989","D&A","Plugged and Abandoned","5890","3004","KB"," "
"1006157021","15-189-20546","Cullison 'A'","2-1","FLYNN ENERGY CORP.","Continental Resources, Inc.","Cutter","31","S","35","W","2"," "," ","SW","SE","NW","3274","-3403","SE","-101.0976781","37.3819484","Stevens","","05/01/1981","06/29/1981","08/25/2006","OIL-P&A","Plugged and Abandoned","5900","3004","KB","Chester"
"1006157027","15-189-20549","CULLISON 'A'","2-2","FLYNN ENERGY","Flynn Energy Corp.","Cutter","31","S","35","W","2"," "," "," ","NW","NW","4620","-4620","SE","-101.1018849","37.385602","Stevens","09/08/1981","09/27/1981","10/10/1981","10/10/1981","D&A","Plugged and Abandoned","5950","2989","KB"," "
"1036127057","15-189-22560","CUTTER","6","BEREXCO INC","BEREXCO LLC","Cutter","31","S","35","W","1"," "," ","NE","NW","SE","2051","-1909","SE","-101.0743192","37.3787686","Stevens","10/17/2006","11/14/2006","02/27/2007","","OIL","Producing","5700","2961","KB","Morrow, St Louis"
"1025686852","15-175-21300-0001","MLP Young 'A'","1","Oxy USA, Inc.","OXY USA Inc.","Cutter","31","S","34","W","8"," ","SE","NW","NW","SW","2000","-4734","SE","-101.0481036","37.3638743","Seward","","03/20/1997","04/07/1997","06/14/2012","SWD-P&A","Plugged and Abandoned","5880","2891","KB"," "
"1006072500","15-081-20019","TREES","1","Service Drilling","The Trees Oil Company","Cutter","30","S","34","W","32","C"," "," ","SW","SW","660","-4620","SE","-101.0684712","37.3895216","Haskell","","10/04/1969","10/16/1969","","OIL","Recompleted","5354","2912","KB","Mrw U"
"1006145244","15-175-21471","Rooney 'B'","4-7","McCoy Petroleum Corp.","McCoy Petroleum Corporation","Cutter","31","S","34","W","7"," "," ","S2","N2","SE","1650","-1320","SE","-101.0544758","37.3629302","Seward","05/01/1995","06/07/1995","07/26/1995","","O&G","Recompleted","4924","2893","KB","Kansas City A"
"1006144763","15-175-21197","Rooney 'B'","1-7","McCoy Petroleum Corp.","BEREXCO LLC","Cutter","31","S","34","W","7"," "," ","S2","SE","NE","2970","-660","SE","-101.0522359","37.3665477","Seward","08/22/1991","09/07/1991","10/19/1991","","OIL","Producing","5750","2894","KB","Marmaton"
"1006072524","15-081-20032","FEEDLOT (ELSIE  33)","1","SERVICE DRLG","","Cutter","30","S","34","W","33","C"," "," ","SE","SE","660","4620","SW","-101.0366695","37.3895747","Haskell","","02/03/1973","03/16/1973","03/31/1973","D&A","Plugged and Abandoned","5662","2814","KB"," "
"1006158685","15-189-21532","Dunlap 'A'","2-11","McCoy Petroleum Corp.","BEREXCO LLC","Cutter","31","S","35","W","11"," "," "," ","SE","SE","655","-656","SE","-101.0880851","37.3602637","Stevens","12/31/1992","01/04/1993","02/27/1993","","OIL","Producing","5875","2993","KB","Chst Sd"
"1002950515","15-189-00026","William Cutter","1","Socony Mobil Oil Co.","","Cutter","31","S","35","W","1"," "," "," ","SW","SE","660","-1980","SE","-101.0745838","37.3749471","Stevens","","12/17/1960","04/08/1961","11/01/1985","OIL-P&A","Plugged and Abandoned","6971","2980","KB"," "
"1023732828","15-175-21585-0002","MLP Young Trust 'B'","2","OXY USA Inc.","OXY USA Inc.","Cutter","31","S","34","W","5"," ","E2","NW","NE","NE","-330","-880","NE","-101.0348558","37.3868319","Seward","","04/26/2001","05/22/2001","12/14/2009","GAS-P&A","Plugged and Abandoned","5725","2804","KB","Marmaton"
"1006157029","15-189-20550","Cullison","2-2","FLYNN ENERGY CORP.","Continental Resources, Inc.","Cutter","31","S","35","W","2"," "," "," ","NW","SE","1978","-1964","SE","-101.0927082","37.3784399","Stevens","11/12/1981","11/16/1981","01/29/1982","02/07/2007","OIL-P&A","Plugged and Abandoned","5850","3006","KB","Chester"
"1005451271","15-189-20614","Cullison 'C'","2-2","FLYNN ENERGY CORP.","Flynn Energy Corp.","Cutter","31","S","35","W","2"," ","E2","W2","SE","NE","3300","-810","SE","-101.0887565","37.3821109","Stevens","08/02/1982","08/04/1982","01/15/1983","09/28/1983","OIL-P&A","Plugged and Abandoned","5900","3000","KB"," "
"1001240477"," ","JACQUELINE","33","Trees Oil Co.","","Cutter","30","S","34","W","33"," ","NE","NE","SW","SW","1250","1250","SW","-101.0482582","37.3911462","Haskell","","11/04/1997","10/01/1997","","LOC"," ","5700","2883","KB"," "
"1002947472","15-175-10119","George B. Strong Unit","4","Mobil Oil Corp.","","Cutter","31","S","34","W","6","C"," "," ","SW","NW","","","","-101.0655117","37.3822256","Seward","","01/15/1962","04/17/1962","01/01/1976","OIL-P&A","Converted to EOR Well","5670","2917","KB"," "
"1006145092","15-175-21381","Rooney 'B'","3-7","McCoy Petroleum Corp.","BEREXCO LLC","Cutter","31","S","34","W","7"," "," ","E2","E2","SE","1320","-330","SE","-101.0510621","37.3620122","Seward","02/18/1994","03/05/1994","04/09/1994","","OIL","Producing","5725","2871","KB","Chester Sand"
"1002950576","15-189-10021","WILLIAM CUTTER","2","MOBIL OIL","","Cutter","31","S","35","W","1"," "," "," ","SW","NE","3300","-1980","SE","-101.0745453","37.3821976","Stevens","","08/23/1961","09/12/1961","04/29/1993","OIL-P&A","Plugged and Abandoned","5734","2957","GL"," "
"1002921900","15-081-21195","Katie","1-28","Berexco, Inc.","Manuel Corporation","Wildcat","30","S","34","W","28"," "," ","S2","S2","NE","2970","-1120","SE","-101.0382133","37.4106031","Haskell","04/07/1998","05/02/1998","05/17/1998","05/17/1998","D&A","Plugged and Abandoned","5879","2942","KB"," "
"1006157319","15-189-20720","Young","1-11","Hawkins Oil and Gas","","Cutter","31","S","35","W","11"," "," "," ","SE","NE","-1980","-660","NE","-101.0881531","37.3676165","Stevens","","05/15/1984","05/25/1984","05/25/1984","D&A","Plugged and Abandoned","5800","2996","KB"," "
"1006159051","15-189-21928","Dunlap 'A'","3-11","McCoy Petroleum Corp.","BEREXCO LLC","Cutter","31","S","35","W","11"," "," "," ","SW","SE","669","-1967","SE","-101.0925957","37.3603136","Stevens","05/02/1995","05/28/1995","06/28/1995","","OIL","Producing","5846","2999","KB","Chst Sd"
"1002947470","15-175-10117","Marguerite Rooney Unit","2","Mobil Oil Corp.","","Cutter","31","S","34","W","7"," "," "," ","NE","SW","1830","-3300","SE","-101.0612921","37.3634479","Seward","","01/29/1964","02/15/1964","10/23/1973","D&A","Plugged and Abandoned","5700","2913","KB"," "
"1006159229","15-189-22020","LAMBERT 'B'","1","Anadarko Production Co.","BEREXCO LLC","Cutter","31","S","35","W","11"," "," ","E2","SE","SW","666","-2909","SE","-101.0958364","37.3603137","Stevens","11/14/1995","01/25/1996","03/05/1996","","OIL","Producing","5810","3004","KB","Chester"
"1006157019","15-189-20545","Cullison","2-1","FLYNN ENERGY CORP.","Viersen & Cochran","Cutter","31","S","35","W","2"," "," "," ","SE","SE","660","-660","SE","-101.0882024","37.3748663","Stevens","07/30/1981","04/08/1981","05/20/1981","11/28/1989","OIL-P&A","Plugged and Abandoned","5812","2999","KB","Chester"
"1026609033","15-175-21471-0001","Rooney 'B'","4-7","McCoy Petroleum Corp.","BEREXCO LLC","Cutter","31","S","34","W","7"," "," ","S2","N2","SE","1650","-1320","SE","-101.0544758","37.3629302","Seward","","10/22/1995","01/26/1996","","GAS","Producing","4930","2893","KB","Lansing-Kansas City"
"1037887329","15-189-22602-0001","CUTTER","8","BEREXCO LLC","BEREXCO LLC","Cutter","31","S","35","W","1"," "," ","SE","SW","SE","545","-1850","SE","-101.0741381","37.3746335","Stevens","","02/04/2008","02/04/2008","","GAS","Recompleted","5810","2980","KB","Cherokee"
"1037349255","15-081-20020-0001","DANIELS","1-D"," ","The Trees Oil Company","Cutter","30","S","34","W","32"," ","NW","SE","SE","SW","648","-3049","SE","-101.0630645","37.3894839","Haskell","","","07/17/1973","10/12/2013","SWD-P&A","Plugged and Abandoned","1250","2866","GL"," "
"1006156167","15-189-20093","William Cutter","5","Mobil Oil Co.","","Cutter","31","S","35","W","1"," ","NW","SE","NW","NE","","","","-101.073996","37.3854471","Stevens","","01/05/1971","01/05/1971","01/05/1971","D&A","Plugged and Abandoned","5700","2946","KB"," "
"1006145094","15-175-21382","MLP Young 'A'","3","Oxy USA, Inc.","OXY USA Inc.","Cutter","31","S","34","W","5"," "," ","SW","SW","SW","330","-4950","SE","-101.0490322","37.3736691","Seward","02/23/1994","02/28/1994","03/11/1994","03/31/1994","D&A","Plugged and Abandoned","5850","2921","KB"," "
"1006144999","15-175-21326","Home Royalty","1-8","Hugoton Energy Corp.","Chesapeake Operating, LLC","Cutter","31","S","34","W","8"," "," ","NW","SW","SW","754","-4748","SE","-101.0480748","37.3604523","Seward","07/20/1993","08/24/1993","09/13/1993","10/30/2003","GAS-P&A","Plugged and Abandoned","5820","2844","KB","Chester"
"1006142642","15-175-10129","Anna Day","2","Texaco, Inc.","","Cutter","31","S","34","W","6"," "," "," ","SW","NE","3300","-1980","SE","-101.0567841","37.3819862","Seward","","07/09/1964","07/31/1964","08/26/1966","OIL-P&A","Plugged and Abandoned","5550","2870","KB","Morrow"
"1006145471","15-175-21593","MLP Young 'A'","4","Oxy USA, Inc.","OXY USA Inc.","Cutter","31","S","34","W","8"," ","E2","E2","NW","NW","4619","-4088","SE","-101.0460427","37.3710654","Seward","01/14/1997","01/17/1997","04/22/1997","12/20/2010","OIL-P&A","Plugged and Abandoned","5850","2918","KB"," "
"1006158763","15-189-21600","M. L. Long","1-12","Berexco, Inc.","Manuel Corporation","Cutter","31","S","35","W","12"," "," ","SW","SE","SE","330","-990","SE","-101.0711287","37.3593531","Stevens","01/24/1994","01/29/1994","02/08/1994","02/08/1994","D&A","Plugged and Abandoned","5750","2968","KB"," "
"1006157057","15-189-20568","CULLISON 'B'","2-1","FLYNN ENERGY CORP","Continental Resources, Inc.","Cutter","31","S","35","W","2"," "," "," ","NW","SW","1980","-4620","SE","-101.1018469","37.3783521","Stevens","03/11/1982","04/13/1982","04/30/1982","","OIL","Converted to EOR Well","5920","3011","KB","Chst Sd"
"1002921901","15-081-21199","Bossy","33"," ","Edison Operating Company LLC","Cutter","30","S","34","W","33"," "," ","NW","NE","SE","2318","-895","SE","-101.0374123","37.3941251","Haskell","04/13/1998","04/14/1998","05/15/1998","","OIL","Inactive Well","5785","2837","KB","Chester"
"1006144799","15-175-21217","Rooney 'B'","2-7","McCoy Petroleum Corp.","BEREXCO LLC","Cutter","31","S","34","W","7"," "," ","NE","SW","NE","3630","-1650","SE","-101.0556573","37.3683721","Seward","10/28/1991","12/05/1991","01/16/1992","","GAS","Converted to EOR Well","5775","2917","KB","Chester"
"1002950736","15-189-50000","George B. Strong Unit","3","Mobil Oil Co.","","Cutter","31","S","35","W","12"," "," "," ","SW","NW","3300","-4620","SE","-101.083651","37.3675202","Stevens","","10/27/1961","11/26/1961","07/08/1974","OIL-P&A","Plugged and Abandoned","5740","2997","KB","Chester"
"1026601590","15-189-20697-0001","CULLISON 'C'","2-3 WSW","JIMMIE I CULLISON","Continental Resources, Inc.","Cutter","31","S","35","W","2"," "," ","NW","SW","NE","3307","-2091","SE","-101.0931642","37.3820851","Stevens","09/23/1997","01/24/1998","04/20/1998","08/16/2006","OTHER-P&A","Plugged and Abandoned","4715","3004","KB"," "
"1006074577","15-081-21142","Sara","1-28","Berexco, Inc.","BEREXCO LLC","Cutter","30","S","34","W","28"," ","E2","SW","SE","SE","204","-811","SE","-101.0371221","37.4030231","Haskell","07/28/1997","08/01/1997","10/01/1997","12/08/2022","OIL-P&A","Plugged and Abandoned","5798","2910","KB","Chester"
"1026609031","15-175-21559-0001","MLP Young Trust 'C'","1","OXY USA Inc.","OXY USA Inc.","Cutter","31","S","34","W","5"," ","NE","SE","SW","NE","-2157","-1440","NE","-101.0367843","37.381404","Seward","","10/18/2000","10/20/2000","07/25/2013","GAS-P&A","Plugged and Abandoned","5740","2825","GL","Marmaton"
"1026601589","15-189-20568-0001","CULLISON 'B'","2-1","CONTINENTAL RESOURCES INC.","Continental Resources, Inc.","Cutter","31","S","35","W","2"," "," "," ","NW","SW","1978","-4647","SE","-101.1019398","37.3783456","Stevens","","09/23/1998","09/25/1998","03/28/2005","EOR-P&A","Plugged and Abandoned","5920","3011","KB"," "
"1006156159","15-189-20087","MOBIL","12-1","ASHLAND OIL","","Cutter","31","S","35","W","12"," "," "," ","NE","SE","1980","-660","SE","-101.0700122","37.3638837","Stevens","","01/29/1970","03/27/1970","04/28/1972","GAS-P&A","Plugged and Abandoned","5700","2964","KB","Chst Sd"
"1002950595","15-189-10042","GEORGE B. STRONG UNIT","6","MOBIL OIL CORP.","","Cutter","31","S","35","W","12"," "," "," ","NE","NW","4620","-3300","SE","-101.0791247","37.3711416","Stevens","","08/12/1962","10/30/1962","10/26/1973","OIL-P&A","Plugged and Abandoned","5690","2980","KB","Chst Sd"
"1002950737","15-189-50001","George B. Strong Unit","5","Mobil Oil Co.","Belco Energy Corp.","Cutter","31","S","35","W","12"," ","NE","SW","NE","NE","-688","-690","NE","-101.0701464","37.3712675","Stevens","","05/15/1962","07/24/1962","","OIL","Recompleted","5659","2965","KB"," "
"1002950582","15-189-10027","GEORGE B. STRONG UNIT 'A'","1","MOBIL OIL CORP.","EXXONMOBIL Oil Corp","Cutter","31","S","35","W","12"," "," ","E2","SW","NE","3300","-1940","SE","-101.0744308","37.3675125","Stevens","","07/25/1961","09/27/1961","04/20/1993","OIL-P&A","Plugged and Abandoned","5770","2969","GL","Morrow"
"1041106747","15-189-22687","Blackstone","1-1","Berexco, Inc.","BEREXCO LLC","Cutter","31","S","35","W","1"," "," ","NE","SE","NW","3389","-2947","SE","-101.0778716","37.3824252","Stevens","09/29/2009","10/06/2009","12/29/2009","","O&G","Producing","5760","2940","KB","Morrow, Chester"
"1034870836","15-189-20376-0002","FNO or FLYNN ENERGY","1","FLYNN ENERGY","Continental Resources, Inc.","Cutter","31","S","35","W","2"," "," ","SW","NE","SE","1661","-965","SE","-101.0892662","37.3776045","Stevens","12/29/1983","02/15/1984","03/23/1984","02/02/2007","OIL-P&A","Plugged and Abandoned","5775","3000","KB"," "
"1025721285","15-189-10040-0001","H F BROWN","2","MOBIL OIL","","Cutter","31","S","35","W","1"," "," "," ","NE","SW","1980","-3300","SE","-101.0791068","37.3785493","Stevens","","04/29/1971","04/29/1971","04/09/1993","OIL-P&A","Plugged and Abandoned","5615","2934","GL","Marm"
"1025778137","15-189-20376-0001","CULLISON","1-SWD","FLYNN ENERGY","Cullison, Jimmie I.","Cutter","31","S","35","W","2"," ","SW","SW","NE","SE","1553","-1087","SE","-101.0896845","37.3773036","Stevens","","","","","SWD","Converted to Producing Well","1334","3000","KB","Chst Sd"
"1027709463","15-175-21585-0001","MLP Young Trust 'B'","2","OXY USA Inc.","OXY USA Inc.","Cutter","31","S","34","W","5"," ","E2","NW","NE","NE","-330","-880","NE","-101.0348558","37.3868319","Seward","","01/07/1997","03/19/1997","","OIL","Recompleted","5725","2804","KB","Chester"
"1006072502","15-081-20020","DANIELS","1","SERVICE DRLG","Service Drilling Co. L.L.C.","Cutter","30","S","34","W","32","C"," "," ","SE","SW","660","-3300","SE","-101.0639282","37.3895176","Haskell","","06/10/1970","06/13/1970","02/01/1979","OIL","Recompleted","5680","2865","KB","Mrw U"
"1037029529","15-189-22602","CUTTER","8","BEREXCO INC","Manuel Corporation","Cutter","31","S","35","W","1"," "," ","SE","SW","SE","545","-1850","SE","-101.0741381","37.3746335","Stevens","06/29/2007","08/03/2007","09/28/2007","","OIL","Recompleted","5810","2980","KB","Morrow, Chester"
"1002947431","15-175-10048","Marguerite Rooney Unit","1","Mobil Oil Co.","EXXONMOBIL Oil Corp","Cutter","31","S","34","W","7"," "," "," ","SW","NW","3300","-4620","SE","-101.0658678","37.3675007","Seward","","12/20/1961","01/16/1962","04/23/1993","OIL-P&A","Plugged and Abandoned","5680","2955","DF"," "
"1002950593","15-189-10040","H. F. Brown","2","Mobil Oil Co.","EXXONMOBIL Oil Corp","Cutter","31","S","35","W","1"," "," "," ","NE","SW","1980","-3300","SE","-101.0791068","37.3785493","Stevens","","07/25/1962","08/10/1962","04/09/1993","OIL","Recompleted","5615","2942","KB"," "
"1006158637","15-189-21507","Lambert 'A'","2-11","McCoy Petroleum Corp.","McCoy Petroleum Corporation","Cutter","31","S","35","W","11"," "," "," ","NE","SW","1980","-3300","SE","-101.0972081","37.3639259","Stevens","06/17/1991","06/28/1991","07/11/1991","07/11/1991","D&A","Plugged and Abandoned","5900","3006","KB"," "
"1050371866","15-189-22860","BROWN","3-1","BEREXCO LLC","BEREXCO LLC","Cutter","31","S","35","W","1"," ","W2","NE","SE","SW","990","2305","SW","-101.0780049","37.375836","Stevens","06/13/2019","06/30/2019","10/10/2019","","GAS","Producing","5750","2981","KB","Marmaton, Morrow"
"1006145078","15-175-21374","MLP Baughman 'C' (was MLP Baughman 'B')","1","Oxy USA, Inc.","Pantera Energy Company","Cutter","31","S","34","W","18"," "," ","NE","NE","NE","-330","-330","NE","-101.0510247","37.3574806","Seward","01/26/1994","02/05/1994","06/03/1994","","OIL","Producing","5850","2894","KB","Chester"
"1006144945","15-175-21300","MLP Young 'A'","1","Oxy USA, Inc.","OXY USA Inc.","Cutter East","31","S","34","W","8"," ","SE","NW","NW","SW","2010","-4770","SE","-101.048228","37.3639019","Seward","02/22/1993","02/25/1993","05/14/1993","","OIL","Converted to SWD Well","5830","2891","KB","Chester"
"1006156039","15-189-20021","William Cutter","4","Mobil Oil Co.","Belco Energy Corp.","Cutter","31","S","35","W","1","C"," "," ","NE","NE","4620","-660","SE","-101.0699839","37.385846","Stevens","","01/10/1969","03/03/1969","","OIL","Recompleted","5700","2919","KB","Mrw U"
"1006142693","15-175-20018","Marguerite Rooney Unit","3","Mobil Oil Co.","EXXONMOBIL Oil Corp","Cutter","31","S","34","W","7"," "," "," ","NE","NW","4620","-3300","SE","-101.0613571","37.3711105","Seward","","10/31/1967","02/29/1968","04/16/1993","EOR-P&A","Plugged and Abandoned","5680","2958","KB"," "
"1006145408","15-175-21559","MLP Young Trust","3-5","Hugoton Energy Corp.","OXY USA Inc.","Cutter","31","S","34","W","5"," "," ","SE","SW","NE","-2360","-1440","NE","-101.0368562","37.381245","Seward","07/25/1996","11/18/1996","12/01/1996","","GAS","Recompleted","5740","2809","KB","Cherokee"
"1006145461","15-175-21588","MLP Young Trust 'A'","3-5","Hugoton Energy Corp.","Merit Energy Company, LLC","Cutter","31","S","34","W","5"," "," "," ","SW","NE","3356","-1419","SE","-101.0367748","37.3818653","Seward","12/11/1996","12/11/1996","01/17/1997","","OIL","Producing","5740","2810","KB"," "
"1006142599","15-175-10049","George B. Strong Unit","2","Mobil Oil Corp.","","Cutter","31","S","34","W","6","C"," "," ","SW","SW","660","-4620","SE","-101.0659044","37.3749397","Seward","","10/26/1961","03/13/1962","04/26/1993","OIL-P&A","Converted to EOR Well","5779","2962","KB","Morrow"
"1006145338","15-175-21521","MLP Young Trust","2-5","Hugoton Energy Corp.","Pantera Energy Company","Cutter","31","S","34","W","5"," "," ","W2","NW","SE","2177","-2261","SE","-101.0397141","37.3786547","Seward","01/10/1996","01/11/1996","02/26/1996","04/06/2023","OIL-P&A","Plugged and Abandoned","5750","2831","KB","Chester"
"1006145027","15-175-21345","MLP Young 'A'","2","Oxy USA, Inc.","Scout Energy Management LLC","Cutter","31","S","34","W","8"," "," ","SW","SW","NE","2970","-2310","SE","-101.0398238","37.3665315","Seward","09/22/1993","11/20/1993","01/07/1994","12/07/2022","GAS-P&A","Plugged and Abandoned","5790","2920","KB","Chester"
"1006159231","15-189-22021","Young 'C'","1","Anadarko Petroleum Corp.","Bear Petroleum, LLC","Cutter","31","S","35","W","11"," ","NE","SW","SW","NE","-2015","-2040","NE","-101.0924554","37.3674757","Stevens","11/14/1995","12/15/1995","02/09/1996","12/22/2011","OIL-P&A","Plugged and Abandoned","5798","3003","KB","Chester"
"1006145550","15-175-21636","L. C. Day","1","Texaco Exploration and Production, Inc.","Four Star Oil & Gas Company","Cutter","31","S","34","W","5"," "," ","NE","NE","NW","5227","-3060","SE","-101.0423537","37.3870559","Seward","06/19/1997","08/28/1997","09/30/1997","09/26/2002","OIL-P&A","Plugged and Abandoned","5800","2807","KB","Chester"
"1026606238","15-081-20032-0001","Elsie","33"," ","Eves Oil Company","Cutter","30","S","34","W","33"," "," "," "," ","SE","660","-660","SE","-101.0366035","37.389575","Haskell","","","","","LOC","Expired Intent to Drill (C-1)","","2814","KB"," "
"1006074595","15-081-21154","Jacqueline","33","Trees Oil Co.","Edison Operating Company LLC","Cutter","30","S","34","W","33"," "," ","NW","NE","NE","4867","-919","SE","-101.0374949","37.4011253","Haskell","10/31/1997","11/11/1997","12/16/1997","","O&G","Producing","5771","2883","KB","Chst Sd"
"1026609034","15-175-10117-0001","Marguerite Rooney Unit","2","SOCONY MOBIL","","Cutter","31","S","34","W","7"," "," ","S2","NE","SW","","","","-101.0610616","37.3629833","Seward","","04/10/1964","07/21/1964","","D&A"," ","5700","2902","GL"," "
"1005451252","15-189-20376","CULLISON","1","FIRST NATIONAL OIL INC","","Cutter","31","S","35","W","2"," ","SW","SW","NE","SE","1553","-1087","SE","-101.0896845","37.3773036","Stevens","12/27/1977","01/29/1978","02/09/1978","02/09/1978","D&A","Plugged and Abandoned","5788","3000","KB"," "
"1006142835","15-175-20098","George B. Strong Unit","8","Mobil Oil Corp.","","Cutter","31","S","34","W","6"," "," "," ","NW","NW","4620","-4620","SE","-101.0658489","37.3858141","Seward","","02/17/1970","03/25/1970","04/13/1983","EOR-P&A","Plugged and Abandoned","5650","2878","DF"," "
"1044138961","15-189-22781","CUTTER W I UNIT (CUTTER KGS 1)","9","Berexco, LLC","BEREXCO LLC","Cutter","31","S","35","W","1"," ","S2","S2","S2","NE","2894","-1286","SE","-101.0721631","37.3810947","Stevens","07/18/2012","08/01/2012","10/05/2012","","OIL","Producing","7735","2939","KB","Arbuckle"
"1030215586","15-189-01004","H. F. BROWN","1","MOBIL OIL CO.","EXXONMOBIL Oil Corp","Cutter","31","S","35","W","1"," "," "," ","SW","SW","","","","-101.0836615","37.3749244","Stevens","","04/09/1961","10/09/1961","","OIL","Recompleted","5800","2989","KB","Marmaton"
"1026601591","15-189-20614-0001","CULLISON 'C'","2-2","JIMMIE I. CULLISON","Cullison, Jimmy I.","Cutter","31","S","35","W","2"," ","NE","SW","SE","NE","3263","-805","SE","-101.088684","37.382065","Stevens","04/17/1984","04/24/1984","05/01/1984","04/01/2014","SWD-P&A","Plugged and Abandoned","5900","3000","KB"," "
"1026606237","15-081-20019-0001","C. DENNIS","2-32","Trees Oil Co.","Edison Operating Company LLC","Cutter","30","S","34","W","32"," "," "," ","SW","SW","683","650","SW","-101.0684742","37.3895848","Haskell","09/30/1999","11/11/1999","11/24/1999","","GAS","Producing","5354","2912","KB","Chase"
"1006158597","15-189-21486","Lambert 'A'","1-11","McCoy Petroleum Corp.","McCoy Petroleum Corporation","Cutter","31","S","35","W","11"," "," "," ","SE","NW","3300","-3300","SE","-101.0972346","37.3675511","Stevens","01/31/1991","02/10/1991","03/30/1991","07/19/1994","OIL-P&A","Plugged and Abandoned","5900","3003","KB","Mrw U"
"1006145455","15-175-21585","MLP Young Trust","4-5","Hugoton Energy Corp.","Hugoton Energy Corporation","Cutter","31","S","34","W","5"," ","E2","NW","NE","NE","-330","-880","NE","-101.0348558","37.3868319","Seward","12/04/1996","01/07/1997","02/21/1997","","OIL","Recompleted","5725","2804","KB","Chester"
"1002947432","15-175-10050","George B. Strong Unit","7","Mobil Oil Corp.","","Cutter","31","S","34","W","6","C"," "," ","NE","SW","","","","-101.0610905","37.3785169","Seward","","10/11/1962","12/26/1962","","OIL","Converted to EOR Well","5686","2916","KB","Morrow And Chester"
"1033974094","15-175-10050-0001","George B. Strong Unit","7"," ","BEREXCO LLC","Cutter","31","S","34","W","6"," ","NE","SW","NE","SW","1945","-3381","SE","-101.0616235","37.3783731","Seward","","","","","EOR","Authorized Injection Well","5686","",""," "
"1006157059","15-189-20569","Cullison 'C'","2-1","FLYNN ENERGY CORP.","Flynn Energy Corp.","Cutter","31","S","35","W","2"," "," "," ","NW","NE","4620","-1980","SE","-101.0928012","37.3856948","Stevens","03/11/1982","03/24/1982","04/11/1982","04/11/1982","D&A","Plugged and Abandoned","5900","2991","KB"," "
"1006145210","15-175-21449","MLP Young Trust","1-5","Oxy USA, Inc.","Pantera Energy Company","Cutter","31","S","34","W","5"," "," "," ","SE","SW","706","-3216","SE","-101.0430527","37.3746432","Seward","01/17/1995","06/15/1995","07/28/1995","","OIL","Producing","5800","2883","KB","Chester"
"1006158519","15-189-21442","Dunlap 'A'","1-11","McCoy Petroleum Corp.","BEREXCO LLC","Cutter","31","S","35","W","11"," "," "," ","NW","SE","1900","-1951","SE","-101.0925654","37.3636943","Stevens","09/04/1990","09/07/1990","10/15/1990","","OIL","Producing","5900","3000","KB","Chst Sd"
"1002947479","15-175-10128","Anna Day","1","Texaco, Inc.","","Cutter","31","S","34","W","6"," "," "," ","SW","SE","660","-1980","SE","-101.0568212","37.3747367","Seward","","06/21/1962","07/11/1962","07/11/1962","D&A","Plugged and Abandoned","5730","2941","KB"," "
"1006158087","15-189-21208","CALVIN BOROUGHS","1","MOBIL OIL CORP.","EXXONMOBIL Oil Corp","Cutter","31","S","35","W","3"," "," ","E2","E2","NE","3960","-330","SE","-101.1052387","37.3837563","Stevens","","07/03/1988","07/04/1988","","D&A","Recompleted","5903","3000","KB","Chase Group"
