KID,API,LEASE_NAME,WELL_NAME,ORIG_OPERATOR,CURR_OPERATOR,FIELD_NAME,TOWNSHIP,TOWNSHIP_DIR,RANGE,RANGE_DIR,SECTION,SPOT,SUBDIVISION_4_SMALLEST,SUBDIVISION_3,SUBDIVISION_2,SUBDIVISION_1_LARGEST,FEET_NORTH,FEET_EAST,REFERENCE_CORNER,NAD27_LONGITUDE,NAD27_LATITUDE,COUNTY,PERMIT_DATE,SPUD_DATE,COMPLETION_DATE,PLUG_DATE,WELL_TYPE,STATUS,TOTAL_DEPTH,ELEVATION,ELEVATION_REFERENCE,PRODUCING_FORMATION
"1001289870","15-163-01963","H. BERLAND 'A'","8","TEXAS COMPANY THE","","Marcotte","10","S","19","W","19"," "," ","NE","SW","NW","3630","-4290","SE","-99.4897397","39.1714333","Rooks","","11/07/1948","12/05/1948","02/03/1970","OIL-P&A","Plugged and Abandoned","3791","2227","KB"," "
"1001289915","15-163-03377","H. BERLAND 'B'","1","THE TEXAS CO","","Marcotte","10","S","19","W","30"," "," ","NE","NE","NW","4950","-2970","SE","-99.4849844","39.1607121","Rooks","","07/27/1948","08/17/1948","03/26/1968","OIL-P&A","Plugged and Abandoned","3815","2241","KB"," "
"1001289855","15-163-01974","H. BERLAND 'A'","11","TEXAS COMPANY THE","","Marcotte","10","S","19","W","19"," "," ","SW","NW","NW","4290","-4950","SE","-99.4920868","39.1732194","Rooks","","","02/05/1949","11/16/1971","OIL-P&A","Plugged and Abandoned","3776","2222","KB"," "
"1044582214","15-163-24134","Tomcat 'B'","3","Vess Oil Corporation","Vess Oil Corporation","Marcotte","10","S","20","W","24"," ","NE","NW","SE","NW","-1535","1760","NW","-99.5057827","39.1719167","Rooks","07/12/2013","08/22/2013","09/17/2013","","OIL","Producing","3727","2160","KB","Arbuckle"
"1006128321","15-163-22712","DESBIEN","10","SOHIO PETROLEUM CO","BP Exploration, Inc.","Marcotte","10","S","20","W","12"," "," ","SE","SW","NE","2970","-1650","SE","-99.4991028","39.1986699","Rooks","06/21/1985","09/01/1985","10/11/1985","","OIL","Recompleted","3774","2240","KB"," "
"1001289824","15-163-01951","Lillian Scoggins","2","Skelly Oil Co.","Bowman Oil Company, a General Partnership","Marcotte","10","S","19","W","18"," "," ","SW","SW","SW","330","-4950","SE","-99.4921264","39.1768706","Rooks","","04/24/1949","05/13/1949","","OIL","Producing","3767","2220","DF"," "
"1002941712","15-163-00670","Keller","3","Birmingham-Bartlett Drilling Co.","","Marcotte","10","S","19","W","30"," ","W2","NE","SE","NE","3937","-416","SE","-99.4759932","39.1580038","Rooks","","05/05/1954","05/16/1954","05/16/1954","D&A","Plugged and Abandoned","3795","2190","KB"," "
"1051175502","15-163-24401","BRUEGGEMAN","1-15","Patterson Energy LLC","Patterson Energy LLC","Marcotte","10","S","20","W","15"," ","NE","NW","SE","NW","-1605","1800","NW","-99.5429111","39.1862749","Rooks","09/27/2019","10/09/2019","10/23/2019","","OIL","Producing","3805","2185","KB","Arbuckle"
"1044866288","15-163-23321-0001","DICK","7","Tengasco, Inc.","Trans Pacific Oil Corporation","Marcotte","10","S","19","W","17"," "," ","SE","SW","NW","2970","-4290","SE","-99.4712612","39.1844","Rooks","","05/28/2014","07/02/2014","","SWD","Authorized Injection Well","3917","2212","KB","Arbuckle"
"1002941972","15-163-00915","D. STEEPLES 'A'","1","K & E DRILLING CO","","Marcotte","9","S","20","W","25"," "," ","NW","SW","SW","990","330","SW","-99.5109103","39.2372075","Rooks","05/01/1959","05/31/1959","06/08/1959","06/08/1959","D&A","Plugged and Abandoned","3797","2229","KB"," "
"1006125310","15-163-21080","PYWELL 'B'","7","I.O. MILLER OIL CO., INC.","","Marcotte","9","S","20","W","35"," "," ","NW","NW","NE","5009","-2374","SE","-99.520454","39.2335186","Rooks","06/12/1980","05/12/1980","05/19/1980","","OIL","Converted to SWD Well","3890","2219","KB"," "
"1021019055","15-163-23313","Therean Towns","1","Calvin Noah","Noah, Calvin","Marcotte","10","S","20","W","9"," "," ","SE","SE","NW","2970","-2970","SE","-99.5598011","39.198946","Rooks","12/21/2000","01/07/2001","01/31/2001","","OIL","Recompleted","3740","2174","KB","Arbuckle"
"1030681394","15-163-21469-0001","SUTOR 'B'","1","ANDERSON THORNTON E","Anderson Energy, Inc.","Marcotte","10","S","20","W","26"," "," ","NE","SE","NE","3630","-330","SE","-99.5131569","39.1570155","Rooks","","07/07/1986","07/12/1986","","OIL","Producing","3729","2165","KB","Topeka"
"1002941600","15-163-00564","WILLIAMS","3","Dane G. Hansen Trust","DGH Oil, LLC","Marcotte","10","S","20","W","16"," "," ","SE","NW","NE","4290","-1650","SE","-99.5551253","39.1880612","Rooks","","06/20/1953","06/28/1953","","OIL","Producing","3758","2196","KB","Arbuckle Group"
"1002942212","15-163-01146","CODDINGTON","3","Barnett Oil","","Marcotte","10","S","20","W","2"," ","W2","NW","SE","SE","966","-1081","SE","-99.5157918","39.2078388","Rooks","","02/01/1952","02/13/1952","02/13/1952","D&A","Plugged and Abandoned","3860","2222","DF"," "
"1033830204","15-163-20967-0001","GRAHAM","6","CHAMPLIN PETROLEUM CO","Vess Oil Corporation","Marcotte","10","S","20","W","1"," "," ","NE","SE","NE","3630","-330","SE","-99.4945344","39.2149832","Rooks","","08/10/1983","08/24/1983","07/22/1994","OIL-P&A","Plugged and Abandoned","3920","2238","KB","Simpson, Lansing Kansas City"
"1006129525","15-163-30053","Atherton","1","Don E. Pratt","Ritchie Exploration, Inc.","Marcotte","10","S","19","W","7"," "," "," ","SE","SW","660","-3300","SE","-99.4864122","39.1923405","Rooks","08/13/1965","08/10/1965","08/17/1965","03/05/1991","OIL-P&A","Plugged and Abandoned","3810","2234","KB"," "
"1002941445","15-163-00418","KELLER 'B'","2","HIGH PLAINS PRODUCTION CO","","Marcotte","10","S","20","W","21"," "," ","NW","NW","SE","2310","-2260","SE","-99.5569806","39.168059","Rooks","","10/30/1951","12/01/1951","05/01/1987","OIL-P&A","Converted to SWD Well","3814","2166","KB","Arbuckle"
"1033829579","15-163-00670-0001","KELLER","3","HUTCHINSON OIL CO","Bowman Oil Company, a General Partnership","Marcotte","10","S","19","W","30"," ","W2","NE","SE","NE","3637","-416","SE","-99.4756739","39.1571797","Rooks","","08/06/1985","08/22/1985","","SWD","Authorized Injection Well","3975","2190","KB"," "
"1033829557","15-163-21404-0001","KELLER 'B'","1","BROUGHER OIL, INC","Bowman Oil Company, a General Partnership","Marcotte","10","S","19","W","30"," "," ","SW","SW","NW","2970","-4950","SE","-99.4920027","39.1552162","Rooks","03/23/1982","04/17/1982","04/23/1982","","OIL","Producing","3796","2230","KB","Arbuckle"
"1001290220","15-163-02093","EARL SUTOR","6","CHAMPLIN OIL & REFINING","","Marcotte","10","S","20","W","13"," "," ","NW","NE","NE","4950","-990","SE","-99.4967652","39.1895957","Rooks","","03/26/1950","04/06/1950","07/01/2003","OIL-P&A","KCC Fee Fund Plugging","3744","2206","KB"," "
"1044217045","15-163-24099","Sparks 'A'","5","Trans Pacific Oil Corp.","Trans Pacific Oil Corporation","Marcotte","10","S","20","W","10"," ","SW","NW","SE","NE","3330","-1055","SE","-99.534369","39.1997803","Rooks","01/14/2013","01/28/2013","03/15/2013","","OIL","Producing","3805","2247","KB","Arbuckle"
"1001290219","15-163-02092","EARL SUTOR","5","CHAMPLIN REFINING CO","","Marcotte","10","S","20","W","13"," "," ","NW","SE","NE","3630","-990","SE","-99.4967689","39.1859702","Rooks","","03/14/1950","03/23/1950","","OIL","Converted to SWD Well","3842","2218","KB"," "
"1041227544","15-163-19434","VEATCH 'A'","2","HEATHMAN DRILLING CO. INC","Okmar Oil Company","Marcotte","10","S","20","W","9"," "," ","SW","SE","NW","2970","-3630","SE","-99.5621303","39.1989614","Rooks","","02/03/1950","02/16/1950","07/19/1990","OIL-P&A","Plugged and Abandoned","3790","2216","KB"," "
"1044787338","15-163-24191","Rogers","4","Raney Oil Company, LLC","Bach Oil Production","Marcotte","10","S","20","W","23"," ","NE","SE","SW","NW","-2209","1312","NW","-99.5259657","39.1701222","Rooks","03/10/2014","04/02/2014","04/15/2014","","OIL","Producing","3803","2235","KB","Arbuckle"
"1038216378","15-163-23735","Rogers-Sutor","1","Raney Oil Co., LLC","Bach Oil Production","Marcotte","10","S","20","W","23"," "," ","SW","NE","NE","-990","-1140","NE","-99.5160156","39.1734949","Rooks","06/04/2008","10/09/2008","01/02/2009","","OIL","Producing","3790","2231","KB","Arbuckle"
"1044787643","15-163-24192","Sutor C","2","Raney Oil Company, LLC","Bach Oil Production","Marcotte","10","S","20","W","13"," ","E2","SE","SW","SW","330","1065","SW","-99.5082288","39.177075","Rooks","03/11/2014","04/21/2014","04/30/2014","","OIL","Producing","3727","2167","KB","Arbuckle"
"1044065206","15-163-24007","Gunn/Gibson","3","Raney Oil Company, LLC","Bach Oil Production","Marcotte","10","S","19","W","18"," ","SE","SE","NW","NW","-1280","1118","NW","-99.4893289","39.1869834","Rooks","02/14/2012","03/01/2012","03/26/2012","","OIL","Producing","3845","2234","KB","Arbuckle"
"1037037915","15-163-19260-0002","WILSON 'A'","3","American Warrior, Inc.","American Warrior, Inc.","Marcotte","10","S","20","W","2"," ","W2","SE","SW","NE","2979","-1751","SE","-99.5177798","39.2133098","Rooks","","","","","SWD","Authorized Injection Well","4322","2232","KB"," "
"1036550049","15-163-23600","Glick","10","Berexco, Inc.","BEREXCO LLC","Marcotte","10","S","20","W","4"," ","SW","NW","NE","SE","2173","-1121","SE","-99.5532806","39.2112686","Rooks","03/20/2007","04/29/2007","06/09/2007","","OIL","Producing","3819","2246","KB","Arbuckle, Lansing Kansas City"
"1036550052","15-163-02093-0001","SUTOR 'B'","2","Raney Oil Company, LLC","Raney Oil Company, LLC","Marcotte","10","S","20","W","13"," "," ","NW","NE","NE","4949","-1107","SE","-99.4967934","39.1895906","Rooks","03/20/2007","","","","OIL","Converted to SWD Well","","2206","KB","Arbuckle"
"1036556366","15-163-00232-0001","Nutsch","1","Berexco LLC","Manuel Corporation","Marcotte","10","S","20","W","3"," ","W2","SW","SW","SW","330","-5072","SE","-99.5485482","39.2062109","Rooks","","","","","SWD","UIC Application Dismissed","","2244","KB"," "
"1035119461","15-163-23473-0001","WANKER","1-8","American Warrior, Inc.","American Warrior, Inc.","Marcotte","10","S","20","W","8"," ","NE","SE","NW","NW","4461","-4109","SE","-99.5819777","39.2030899","Rooks","","03/15/2006","03/22/2006","","SWD","Authorized Injection Well","4079","2271","KB"," "
"1035119475","15-163-23552","Sutor 'C'","1","Bowman Oil Co.","Bowman Oil Company, a General Partnership","Marcotte","10","S","20","W","26"," "," ","SW","NE","SE","1850","-1150","SE","-99.5160492","39.1521552","Rooks","07/28/2006","09/12/2006","10/12/2006","","OIL","Producing","3740","2168","KB","Arbuckle"
"1025830043","15-163-23349","CHILDS-PYWELL","1","C.C. OIL","Mustang Energy Corporation","Marcotte","10","S","19","W","6"," ","NE","NW","NE","NW","-80","1740","NW","-99.487263","39.2194096","Rooks","07/08/2002","07/09/2002","07/17/2002","","OIL","Producing","3779","2215","KB","Arbuckle"
"1034969806","15-163-23543","SCHONTHALER 'B'","1","Spring, Harry A.","Spring, Harry A.","Marcotte","10","S","20","W","36"," ","W2","NE","NW","NE","-330","-1800","NE","-99.49954","39.1461376","Rooks","06/20/2006","07/11/2006","07/18/2006","07/18/2006","D&A","Plugged and Abandoned","3775","2169","KB","Arbuckle"
"1002941565","15-163-00529","MARTIN P. SUTOR","1","CHAMPLIN OIL & REFINING","","Marcotte","10","S","20","W","17"," "," ","SE","SE","NW","2970","-2970","SE","-99.5783374","39.1843623","Rooks","","02/06/1953","02/20/1953","02/20/1953","D&A","Plugged and Abandoned","3875","2222","KB"," "
"1035942303","15-163-01912-0001","OUDERKIRK","9","H & B Petroleum Corp.","H & B Petroleum Corp.","Marcotte","10","S","19","W","7"," "," ","NE","NW","NW","-330","990","NW","-99.4897904","39.2041302","Rooks","08/09/2006","08/23/2006","08/25/2006","","OIL","Producing","3804","2233","KB","Arbuckle"
"1002941693","15-163-00652","WILLIAMS","1","HEATHMAN DRLG","","Marcotte","10","S","20","W","16"," "," ","NW","NW","NW","-330","330","NW","-99.5667044","39.189928","Rooks","","03/25/1950","04/04/1950","05/05/1973","OIL-P&A","Plugged and Abandoned","3821","2246","KB"," "
"1043342517","15-163-23922","Sutor 'B'","4","Raney Oil Co., LLC","Bach Oil Production","Marcotte","10","S","20","W","13"," "," ","NE","SW","SE","990","-1650","SE","-99.4991052","39.1787536","Rooks","01/19/2011","02/15/2011","02/27/2011","","OIL","Producing","3800","2195","GL","Arbuckle"
"1041467369","15-163-12267","Sutor 'B'","2","Birmingham-Bartlett Drilling Co.","","Marcotte","10","S","20","W","24"," "," ","N2","NE","SE","2310","-660","SE","-99.4956144","39.1677922","Rooks","","07/26/1950","08/06/1950","10/24/1958","OIL-P&A","Plugged and Abandoned","3795","2227","KB"," "
"1043341092","15-163-23918","Nutsch 'A'","1","Tengasco, Inc.","Tengasco, Inc.","Marcotte","10","S","20","W","2"," ","NE","NW","SW","SW","1008","410","SW","-99.5291118","39.2079589","Rooks","01/07/2011","01/21/2011","02/11/2011","06/10/2016","OIL-P&A","Plugged and Abandoned","3907","2254","KB","Lansing"
"1043452346","15-163-23929","Croffoot","13","Tengasco, Inc.","Trans Pacific Oil Corporation","Marcotte","10","S","20","W","11"," ","SE","NW","SW","SW","682","372","SW","-99.5293402","39.1924872","Rooks","02/11/2011","03/03/2011","03/22/2011","","OIL","Producing","3846","2213","KB","Arbuckle"
"1037341514","15-163-19366","RUSSELL DICK","1 SWD","MAGNOLIA PETROLEUM CORP.","","Marcotte","10","S","19","W","8"," ","SE","SW","NW","SW","1469","550","SW","-99.4728293","39.1946999","Rooks","","01/21/1950","02/02/1950","02/14/1952","SWD-P&A","Plugged and Abandoned","750","2206","KB"," "
"1043569536","15-163-23947","BERLAND","1","Meridian Energy Inc.","Meridian Energy Inc.","Marcotte","10","S","19","W","19"," "," ","SE","SW","NW","-2310","990","NW","-99.4897927","39.1696502","Rooks","03/29/2011","","","","LOC","Expired Intent to Drill (C-1)","","2223","GL"," "
"1043239093","15-163-23916","Coddington","5","Tengasco, Inc.","Tengasco, Inc.","Marcotte","10","S","20","W","2"," ","SE","SW","SE","SE","330","-990","SE","-99.5154523","39.2060906","Rooks","12/29/2010","01/14/2011","02/04/2011","","OIL","Recompleted","3883","2237","KB","Arbuckle"
"1043452758","15-163-23930","Croffoot 'B'","12","Tengasco, Inc.","Trans Pacific Oil Corporation","Marcotte","10","S","20","W","11"," ","NW","SW","SE","SE","372","-1240","SE","-99.5162676","39.1916462","Rooks","02/14/2011","02/23/2011","03/15/2011","","OIL","Producing","3833","2209","KB"," "
"1043688533","15-163-23951","Church of God","1","Blake Exploration, LLC","Blake Exploration, LLC","Marcotte","10","S","20","W","25"," ","SE","NW","NE","SE","2000","-900","SE","-99.4964042","39.1525396","Rooks","04/18/2011","05/16/2011","05/21/2011","05/21/2011","D&A","Plugged and Abandoned","3800","2211","KB","Arbuckle"
"1001289750","15-163-03375","RUSSELL DICK","1","MAGNOLIA PETROLEUM CO","","Marcotte","10","S","19","W","8"," "," ","SW","SW","SW","330","-4950","SE","-99.4736055","39.1915627","Rooks","","10/12/1949","11/01/1949","04/14/1952","OIL-P&A","Plugged and Abandoned","3783","2208","KB"," "
"1043740852","15-163-23954","Sutor 'C'","1","Raney Oil Co., LLC","Bach Oil Production","Marcotte","10","S","20","W","13"," ","NW","SE","SW","SW","545","845","SW","-99.5090007","39.1776769","Rooks","05/09/2011","05/30/2011","07/01/2011","","OIL","Producing","3729","2162","KB","Arbuckle"
"1030215530","15-163-23390","CHILDS 'A'","2","Ron W. Cummings","Mustang Energy Corporation","Marcotte","10","S","19","W","6"," ","S2","N2","S2","NW","-1740","1340","NW","-99.4886371","39.2148413","Rooks","10/30/2003","01/15/2004","01/24/2004","","OIL","Producing","3789","2231","GL","Arbuckle"
"1001290165","15-163-03645","CROFFOOT 'C'","5","I.O. MILLER","Miller, I. O., Inc.","Marcotte","10","S","20","W","11"," "," ","NE","SE","NW","3630","-2970","SE","-99.5224107","39.2005896","Rooks","","08/24/1954","09/07/1954","03/14/1986","SWD-P&A","Plugged and Abandoned","4250","2239","KB"," "
"1037888865","15-163-23309-0002","KEAS 'A'","1","American Warrior, Inc.","American Warrior, Inc.","Marcotte","9","S","20","W","36"," "," ","SE","SW","SW","368","-4375","SE","-99.5085017","39.2205711","Rooks","","","","","SWD","Authorized Injection Well","3880","2252","KB"," "
"1001290400","15-163-02347","Sutor 'A'","4","Birmingham-Bartlett Drilling Co.","","Marcotte","10","S","20","W","24"," "," ","SW","NE","NE","4290","-990","SE","-99.4967785","39.1732428","Rooks","","11/08/1949","11/18/1949","07/24/1974","OIL-P&A","Plugged and Abandoned","3749","2200","KB"," "
"1037888833","15-163-23309-0001","KEAS 'A'","1","Raney Oil Company, LLC","Raney Oil Company, LLC","Marcotte","9","S","20","W","36"," "," ","SE","SW","SW","368","-4375","SE","-99.5084627","39.22059","Rooks","","","","","SWD","UIC Application Dismissed","","2252","KB"," "
"1039254123","15-163-22713-0001","KELLER 'C' (NE)","1","Bowman Oil Company, a General Partnership","Bowman Oil Company, a General Partnership","Marcotte","10","S","19","W","30"," "," ","NW","SE","NE","3630","-990","SE","-99.4780232","39.1571439","Rooks","02/04/2009","03/23/2009","05/08/2009","","OIL","Producing","3808","2215","KB","Arbuckle"
"1039404186","15-163-02017-0001","Glick","7","Okmar Oil Co.","BEREXCO LLC","Marcotte","10","S","20","W","4"," "," ","W2","NW","SE","2008","-2415","SE","-99.5574184","39.2108113","Rooks","","","11/21/1977","","SWD","Authorized Injection Well","1574","2257","KB"," "
"1036871899","15-163-01909-0001","Ouderkirk","4","H & B Petroleum Corp.","H & B Petroleum Corp.","Marcotte","10","S","19","W","7"," ","W2","SE","NE","NW","4260","-3101","SE","-99.4853105","39.2023297","Rooks","05/02/2007","05/20/2007","06/18/2007","06/18/2007","D&A","Plugged and Abandoned","3368","2226","GL","Arbuckle"
"1039404195","15-163-02686-0001","Lillian Scoggins","9 SWD","Bowman Oil Co.","Bowman Oil Company, a General Partnership","Marcotte","10","S","19","W","18"," ","W2","NE","NE","SW","2310","-2970","SE","-99.4851808","39.1823997","Rooks","","","","02/10/2010","SWD-P&A","Plugged and Abandoned","4282","2230","KB"," "
"1001290244","15-163-02152","STITHEM","14","NADEL & GUSSMAN","","Marcotte","10","S","20","W","14"," "," ","SW","NE","NE","4290","-990","SE","-99.5153996","39.1879983","Rooks","","04/27/1952","05/07/1952","03/12/1997","OIL-P&A","Converted to EOR Well","3756","2218","KB"," "
"1002941903","15-163-00849","Wanker","1","Jones, Shelburne, and Farmer, Inc.","","Marcotte","10","S","20","W","8"," "," ","NE","SW","SW","990","-4290","SE","-99.5830201","39.1935121","Rooks","","02/08/1955","03/19/1955","03/19/1955","D&A","Plugged and Abandoned","3861","2271","KB"," "
"1026650573","15-163-01946-0001","Marcotte","6","Manuel Corporation","Manuel Corporation","Marcotte","10","S","19","W","18"," "," ","NW","NW","NW","4950","-4950","SE","-99.4922204","39.1895585","Rooks","","03/08/2000","04/17/2000","07/02/2002","OIL-P&A","Plugged and Abandoned","3766","2224","KB","Lansing Kansas City, Arbuckle"
"1006124387","15-163-20620","KELLER 'B'","5","THORNTON E. ANDERSON","Ritchie Exploration, Inc.","Marcotte","10","S","20","W","21"," "," ","W2","SE","SE","660","-990","SE","-99.5524812","39.1635089","Rooks","05/20/1976","05/29/1976","06/06/1976","06/05/1998","OIL","Recompleted","3760","2172","KB"," "
"1006126394","15-163-21655","DESBIEN","8","Sohio Petroleum Co.","BP Exploration, Inc.","Marcotte","10","S","20","W","12"," "," ","NW","NE","NE","4950","-1300","SE","-99.4978731","39.204097","Rooks","04/16/1982","05/21/1982","06/25/1982","","OIL","Recompleted","3900","2230","KB","Arbuckle"
"1006128130","15-163-22607","KELLER","1","CINCRIS ENERGY CO. INC","Black Diamond Oil, Inc.","Marcotte","10","S","20","W","20"," "," ","N2","NW","NE","4950","-1980","SE","-99.5748181","39.1752775","Rooks","01/02/1985","02/18/1985","03/29/1985","07/17/1991","OIL-P&A","Plugged and Abandoned","3850","2218","KB","Lansing Kansas City"
"1006126099","15-163-21488","BERLAND","1","CATTLEMANS OIL OPERATIONS","Howard Operating & Producing Co.","Marcotte","10","S","19","W","19"," "," ","NW","NE","SW","2310","-3630","SE","-99.4873738","39.1678346","Rooks","11/05/1981","11/28/1981","12/06/1981","04/18/1983","OIL-P&A","Plugged and Abandoned","3860","2225","KB"," "
"1006123867","15-163-20353","BRUEGGEMAN","11","CHAMPLIN PETROLEUM CO.","Murfin Drilling Co., Inc.","Marcotte","10","S","20","W","15"," "," ","N2","NE","NW","4950","-3300","SE","-99.5422091","39.1897597","Rooks","03/01/1971","03/05/1971","03/14/1971","07/29/2015","OIL-P&A","Plugged and Abandoned","3759","2207","KB"," "
"1006124671","15-163-20764","DICK","5","FRONTIER OIL","","Marcotte","10","S","19","W","17"," "," ","SE","NE","NW","4290","-2970","SE","-99.4665781","39.1880156","Rooks","12/26/1977","01/06/1978","01/19/1978","01/19/1978","D&A","Plugged and Abandoned","3780","2182","KB"," "
"1006123755","15-163-20297","Sutor 'B'","1","Donald C. Slawson","","Marcotte","10","S","20","W","25"," "," ","SE","NW","NE","4290","-1650","SE","-99.4990893","39.1588271","Rooks","02/20/1970","02/20/1970","02/27/1970","02/27/1970","D&A","Plugged and Abandoned","3767","2195","KB"," "
"1006126432","15-163-21677","SUTOR","12","CHAMPLIN PETROLEUM CO.","RME Petroleum Company","Marcotte","10","S","20","W","22"," "," ","NE","NE","SE","2310","-330","SE","-99.5317705","39.1680125","Rooks","05/04/1982","06/07/1982","08/15/1982","04/05/1986","OIL-P&A","Plugged and Abandoned","3900","2210","KB","Lansing 'C', 'G', 'H' And Arbuckle"
"1006128026","15-163-22546","Moore","5","HELMERICH & PAYNE, INC.","Helmerich & Payne, Inc.","Marcotte","10","S","20","W","14"," "," ","NW","SW","SW","990","330","SW","-99.5294159","39.1788999","Rooks","11/01/1984","11/21/1984","01/31/1985","03/21/1985","D&A","Plugged and Abandoned","3850","2228","KB"," "
"1037996156","15-163-01908-0001","Ouderkirk","3","H & B Petroleum Corp.","H & B Petroleum Corp.","Marcotte","10","S","19","W","7"," "," ","NW","SE","NW","-1650","1650","NW","-99.4874569","39.2005279","Rooks","04/25/2008","","","","LOC","Expired Intent to Drill (C-1)","","2225","GL","Arbuckle"
"1006123823","15-163-20331","BRUGGEMAN","10","CHAMPLIN PETROLEUM CO.","Murfin Drilling Co., Inc.","Marcotte","10","S","20","W","15"," ","SE","SE","NW","NW","4280","-3970","SE","-99.5445371","39.1879712","Rooks","11/03/1970","11/03/1970","11/12/1970","07/18/2011","OIL-P&A","Plugged and Abandoned","3713","2168","DF"," "
"1006123833","15-163-20336","NUTSCH 'B'","3","OKMAR OIL CO","","Marcotte","10","S","20","W","3"," "," ","SE","SE","NW","2970","-2970","SE","-99.5411584","39.2134376","Rooks","12/07/1970","12/08/1970","12/14/1970","12/14/1970","D&A","Plugged and Abandoned","3819","2257","KB"," "
"1006126255","15-163-21578","SUTOR 'A'","20","Champlin Petroleum Co.","RME Petroleum Company","Marcotte","10","S","20","W","1"," "," ","S2","SW","SE","330","-1980","SE","-99.5002835","39.2059714","Rooks","02/08/1982","11/13/1981","01/27/1982","","OIL","Recompleted","3923","2231","KB"," "
"1006129632","15-163-30164","DICK","3","FRONTIER OIL","","Marcotte","10","S","19","W","17"," ","S2","NW","NW","NW","4850","-4950","SE","-99.473582","39.1895192","Rooks","06/10/1966","06/14/1966","06/21/1966","06/21/1966","D&A","Plugged and Abandoned","3778","2196","KB"," "
"1006129634","15-163-30165","DICK","1","FRONTIER OIL","Trans Pacific Oil Corporation","Marcotte","10","S","19","W","17"," "," ","SW","NW","NW","4290","-4950","SE","-99.4735218","39.1879704","Rooks","05/02/1966","04/30/1966","05/09/1966","09/09/2021","OIL-P&A","Plugged and Abandoned","3795","2204","KB"," "
"1006129391","15-163-23279","CROFFOOT","12","A F G ENERGY, INC.","Trans Pacific Oil Corporation","Marcotte","10","S","20","W","11"," ","SE","SE","NW","SW","1345","-4290","SE","-99.527043","39.19431","Rooks","06/10/1996","06/28/1996","07/06/1996","","OIL","Producing","3845","2246","KB","Arbuckle"
"1006128615","15-163-22877","SUTOR","12","CRUDE RECOVERY","LRC Development Corporation","Marcotte","10","S","20","W","13"," ","NW","NE","SW","NE","3737","-1824","SE","-99.4997114","39.1863074","Rooks","03/07/1986","03/22/1986","04/04/1986","","OIL","Converted to SWD Well","4233","2200","KB"," "
"1006128710","15-163-22929","SUTOR 'A'","22","Champlin Petroleum","RME Petroleum Company","Marcotte","10","S","20","W","1"," "," ","NW","SE","SE","1040","-915","SE","-99.4965401","39.2078877","Rooks","06/03/1987","06/17/1987","06/23/1987","06/23/1987","D&A","Plugged and Abandoned","3900","2238","KB"," "
"1006129732","15-163-30215","Olive Anderson","9","Norman Oil Co.","Price, Robert R. Operating, Inc.","Marcotte","10","S","19","W","18"," "," ","SE","NW","NE","4290","-1650","SE","-99.4805638","39.1878984","Rooks","06/16/1966","07/01/1966","07/12/1966","09/24/1987","OIL-P&A","Plugged and Abandoned","3806","2225","KB","Arbuckle"
"1006129738","15-163-30218","KELLER 'B'","4","HIGH PLAINS PRODUCTION CO","Paul Bowman Oil Trust","Marcotte","10","S","20","W","21"," "," ","E2","NW","SE","1980","-1650","SE","-99.5545917","39.1670907","Rooks","07/18/1966","07/16/1966","07/25/1966","07/07/2010","OIL-P&A","Plugged and Abandoned","3760","2180","KB"," "
"1006129250","15-163-23204","ARMBRISTER","1","CARMEN SCHMITT INC","Carmen Schmitt, Inc.","Marcotte","10","S","20","W","35"," "," ","SW","NW","NW","4240","-4950","SE","-99.5293386","39.1443586","Rooks","05/27/1992","05/30/1992","06/05/1992","11/04/2011","OIL-P&A","Plugged and Abandoned","3853","2172","KB","Arbuckle And Kansas City"
"1006123777","15-163-20308","WILLIAMS","5","Dane G. Hansen Trust","DGH Oil, LLC","Marcotte","10","S","20","W","16"," "," ","W2","NE","NE","4620","-990","SE","-99.5528162","39.1889526","Rooks","05/05/1970","05/06/1970","05/15/1970","","OIL","Producing","3725","2175","KB","Arbuckle Group"
"1006124860","15-163-20854","BERLAND","1","FRONTIER OIL CO.","","Marcotte","10","S","19","W","19"," "," "," ","SE","SW","660","-3300","SE","-99.4861624","39.1633165","Rooks","09/21/1978","09/28/1978","10/16/1978","10/16/1978","D&A","Plugged and Abandoned","3880","2236","KB"," "
"1002941143","15-163-00134","TEALL","1","CHAMPLIN OIL & REFINING","","Marcotte","10","S","20","W","17"," "," ","SE","SE","NE","2970","-330","SE","-99.5690223","39.1845007","Rooks","","11/10/1948","11/26/1948","11/26/1948","D&A","Plugged and Abandoned","3983","2256","KB"," "
"1001290282","15-163-02128","MOORE","3","C & G DRILLING","Venture Resources, Inc.","Marcotte","10","S","20","W","14"," "," ","NE","SW","SW","990","990","SW","-99.5270871","39.1789057","Rooks","","12/21/1951","01/07/1952","","OIL","Producing","3787","2238","KB"," "
"1037343764","15-163-23659","Childs 'A'","5","Black Diamond Oil, Inc.","Mustang Energy Corporation","Marcotte","10","S","19","W","6"," ","S2","SE","SE","NW","-2500","2310","NW","-99.485195","39.2127765","Rooks","10/23/2007","01/18/2008","02/20/2008","","OIL","Producing","3805","2234","KB","Arbuckle"
"1001289949","15-163-01994","SUTOR 'A'","10","CHAMPLIN OIL & REFINING CO","Murfin Drilling Co., Inc.","Marcotte","10","S","20","W","1"," "," ","SW","NW","SE","1650","-2310","SE","-99.5014788","39.2096076","Rooks","04/28/1964","04/27/1964","05/06/1964","","OIL","Producing","3768","2234","KB"," "
"1001287581","15-163-22066","MAXFIELD","1","HERBERT PETR OPER","Herbert Petroleum Operations","Marcotte","10","S","20","W","17"," "," ","E2","SW","SE","660","-1495","SE","-99.5731198","39.1780953","Rooks","06/02/1983","","01/19/1984","","LOC","Expired Intent to Drill (C-1)","","",""," "
"1046464516","15-163-24343","WANKER","1","James P. Williams Enterprises, Inc.","James P. Williams Enterprises, Inc.","Marcotte","10","S","20","W","8"," ","N2","SE","SE","NE","-2200","-330","NE","-99.5690626","39.199229","Rooks","05/30/2017","07/06/2017","07/22/2017","","OIL","Producing","3900","2250","KB","Arbuckle"
"1002941193","15-163-00182","NUTSCH","1","HEATHMAN-HONAKER DRILLING CO. INC","","Marcotte","10","S","20","W","3"," "," ","NE","NE","NE","4950","-330","SE","-99.5318619","39.2188454","Rooks","","01/07/1949","01/17/1949","01/17/1949","D&A","Plugged and Abandoned","3913","2261","KB"," "
"1001290102","15-163-03150","Rode","3","Heathman Drilling Co.","","Marcotte","10","S","20","W","9"," "," ","SW","SE","SW","330","-3630","SE","-99.5621681","39.1917108","Rooks","","05/10/1950","05/19/1950","09/01/1974","OIL-P&A","Converted to EOR Well","3795","2226","KB","Arbuckle"
"1001290103","15-163-03152","VEATCH 'A'","5","HEATHMAN DRLG CO","","Marcotte","10","S","20","W","9"," "," ","W2","NE","NW","4620","-3630","SE","-99.5621067","39.203493","Rooks","","12/26/1950","01/05/1951","09/06/1974","OIL-P&A","Plugged and Abandoned","3790","2207","KB"," "
"1037555657","15-163-21175","PYWELL","3-SWD","LAWBANCO DRILLING INC.","","Marcotte","9","S","20","W","36"," "," ","NW","SE","SE","990","-990","SE","-99.4968832","39.2223337","Rooks","10/22/1980","10/26/1980","07/02/1981","","LOC","Cancelled API Number","1662","",""," "
"1037340986","15-163-19018","Sutor 'A'","3","Birmingham-Bartlett Drilling Co.","","Marcotte","10","S","20","W","24"," "," ","NE","NW","NE","4950","-1650","SE","-99.4991069","39.1750802","Rooks","","10/03/1949","10/15/1949","07/24/1974","OIL-P&A","Plugged and Abandoned","3759","2208","KB"," "
"1037343810","15-163-02679-0001","H. BERLAND 'A'","14","Bowman Oil Co.","Bowman Oil Company, a General Partnership","Marcotte","10","S","19","W","19"," ","W2","NE","NE","NW","4923","-3124","SE","-99.4851323","39.1751385","Rooks","08/24/1981","","11/25/1981","","SWD","Recompleted","1630","2227","KB"," "
"1037553381","15-163-23673","Sutor 'B'","9","Vess Oil Corp.","Vess Oil Corporation","Marcotte","10","S","20","W","12"," "," ","NW","SW","SW","990","330","SW","-99.5107337","39.1933367","Rooks","12/13/2007","01/10/2008","01/19/2008","01/19/2008","D&A","Plugged and Abandoned","3830","2214","KB","Arbuckle"
"1037345156","15-163-23663","NUTSCH","1","Tengasco, Inc.","Trans Pacific Oil Corporation","Marcotte","10","S","20","W","2"," ","NE","SE","SW","SW","600","1275","SW","-99.5261461","39.2068757","Rooks","10/26/2007","11/13/2007","12/06/2007","","OIL","Producing","3893","2242","KB","Arbuckle"
"1001290117","15-163-03398","DOWNEY","6","B & R DRILLING INC","","Marcotte","10","S","20","W","10","C"," ","SE","NW","SW","1650","-4290","SE","-99.5457908","39.1952314","Rooks","","06/25/1952","07/07/1952","07/07/1952","D&A","Plugged and Abandoned","3841","2221","KB"," "
"1001290118","15-163-03324","HINKHOUSE","1","CHAMPLIN REFINING CO","","Marcotte","10","S","20","W","10","C"," ","SE","SW","SE","330","-1650","SE","-99.5364773","39.1915527","Rooks","","08/29/1949","09/10/1949","09/10/1949","D&A","Plugged and Abandoned","3828","2229","KB"," "
"1001290120","15-163-02045","ROGERS","2","BARNETT OIL CO","Trans Pacific Oil Corporation","Marcotte","10","S","20","W","10"," "," ","SE","NW","NW","4290","-4290","SE","-99.5457834","39.2024822","Rooks","","03/01/1950","04/07/1950","","OIL","Producing","3777","2200","KB"," "
"1001290128","15-163-03323","DOWNEY","2","B & R Drilling, Inc.","","Marcotte","10","S","20","W","10","C"," ","SW","SW","SW","330","-4950","SE","-99.5481239","39.1916193","Rooks","","09/28/1950","10/12/1950","10/12/1950","D&A","Plugged and Abandoned","3776","2170","KB"," "
"1001290132","15-163-02038","DOWNEY","1","B & R DRILLING INC","","Marcotte","10","S","20","W","10","C"," ","SE","SE","SW","330","-2970","SE","-99.5411359","39.1915793","Rooks","","06/16/1949","07/12/1949","04/10/1986","OIL-P&A","Plugged and Abandoned","3789","2226","KB"," "
"1001290137","15-163-02052","CROFFOOT","5","C-G DRILLING CO","Miller, I. O., Inc.","Marcotte","10","S","20","W","11"," "," ","SW","SE","SW","330","-3630","SE","-99.524702","39.1915241","Rooks","","06/09/1951","06/18/1951","12/13/1983","OIL-P&A","Plugged and Abandoned","3803","2242","KB"," "
"1037043896","15-163-23644","Tomcat","1","Blake Exploration, LLC","Blake Exploration, LLC","Marcotte","10","S","20","W","25"," "," ","NW","SE","NE","-1775","-1250","NE","-99.4976652","39.1565942","Rooks","08/29/2007","12/01/2007","12/07/2007","12/07/2007","D&A","Plugged and Abandoned","3781","2209","KB","Arbuckle"
"1001290138","15-163-03401","CROFFOOT","1","I.O. MILLER","","Marcotte","10","S","20","W","11"," "," ","NE","NW","NE","4950","-1650","SE","-99.5177673","39.2042187","Rooks","","11/12/1952","11/22/1952","11/22/1952","D&A","Plugged and Abandoned","3825","2220","KB"," "
"1001290140","15-163-02065","CROFFOOT 'A'","2","I.O. MILLER","Tengasco, Inc.","Marcotte","10","S","20","W","11"," "," ","SW","SW","NE","2970","-2310","SE","-99.5200738","39.1987787","Rooks","","12/28/1952","01/09/1953","05/11/2012","OIL-P&A","Plugged and Abandoned","3775","2227","KB"," "
"1001290150","15-163-02059","CROFFOOT 'B'","3","MILLER I O OIL CO","Trans Pacific Oil Corporation","Marcotte","10","S","20","W","11"," "," ","NW","NE","SE","2310","-990","SE","-99.5154076","39.1969697","Rooks","","11/26/1953","12/07/1953","","OIL","Producing","3780","2230","KB"," "
"1001290161","15-163-03429","CROFFOOT 'A'","5","I.O. MILLER","Trans Pacific Oil Corporation","Marcotte","10","S","20","W","11"," "," ","SE","SE","NE","2970","-330","SE","-99.5130859","39.1987843","Rooks","10/06/1956","10/05/1956","10/17/1956","","OIL","Producing","3778","2232","KB"," "
"1001289962","15-163-02000","WILSON 'B'","8","FRANCIS OIL & GAS CO","American Warrior, Inc.","Marcotte","10","S","20","W","1"," "," ","NE","SE","NW","3630","-2970","SE","-99.5038543","39.2150671","Rooks","","05/28/1954","06/16/1954","","OIL","Producing","3775","2244","KB"," "
"1001289970","15-163-03286","SUTOR 'A'","4","CHAMPLIN REFINING CO","RME Petroleum Company","Marcotte","10","S","20","W","1"," "," ","SE","NE","SE","1650","-330","SE","-99.4944889","39.2095446","Rooks","","05/26/1952","06/12/1952","08/31/1988","OIL-P&A","Plugged and Abandoned","3778","2238","KB"," "
"1001289976","15-163-03222","WILSON 'B'","4","FRANCIS OIL & GAS INC","American Warrior, Inc.","Marcotte","10","S","20","W","1"," "," ","SW","NE","NW","4290","-3630","SE","-99.5061994","39.216901","Rooks","06/24/1958","06/24/1958","07/05/1958","","OIL","Producing","3782","2249","KB"," "
"1001289983","15-163-03386","SPARKS 'B'","3","BARNETT OIL CO","","Marcotte","10","S","20","W","2"," "," ","NE","SE","SW","990","-2970","SE","-99.522461","39.2079318","Rooks","","12/31/1953","01/11/1954","01/11/1954","D&A","Plugged and Abandoned","3851","2245","KB"," "
"1001289985","15-163-02006","SPARKS 'B'","5","K & G OIL CO.","","Marcotte","10","S","20","W","2"," "," ","N2","N2","SW","2310","-3960","SE","-99.5259937","39.2115716","Rooks","","08/23/1955","09/03/1955","08/08/1973","OIL-P&A","Plugged and Abandoned","3889","2249","KB"," "
"1001289993","15-163-03223","Marcotte","1","FRANCIS OIL & GAS INC","","Marcotte","10","S","20","W","2"," "," ","S2","SW","NW","2970","-4620","SE","-99.5283425","39.2133939","Rooks","","07/27/1955","08/09/1955","11/30/1955","OIL-P&A","Plugged and Abandoned","3885","2254","DF"," "
"1001290005","15-163-04083","NUTSCH","1","FALCON SEABOARD DRILLING CO","","Marcotte","10","S","20","W","3"," "," ","NW","NW","SE","1980","-2310","SE","-99.5388172","39.2107109","Rooks","","12/19/1942","01/07/1943","01/07/1943","D&A","Plugged and Abandoned","3948","2263","KB"," "
"1001290015","15-163-02018","Towns","1","Heathman Drilling Co.","","Marcotte","10","S","20","W","4"," "," ","E2","NE","SW","1980","-2970","SE","-99.5598041","39.2107276","Rooks","","09/27/1951","10/09/1951","04/24/1970","OIL-P&A","Plugged and Abandoned","3839","2245","KB"," "
"1001290018","15-163-02016","Glick","6","Heathman Drilling Co.","Manuel Corporation","Marcotte","10","S","20","W","4"," "," ","NW","SE","SE","990","-990","SE","-99.5527977","39.2080202","Rooks","","01/25/1951","02/05/1951","01/23/1996","OIL-P&A","Plugged and Abandoned","3804","2230","KB"," "
"1001289705","15-163-02550","PYWELL 'B'","1","NADEL & GUSSMAN","","Marcotte","10","S","19","W","6"," "," ","SE","SW","NW","2970","-4290","SE","-99.4899529","39.2131923","Rooks","06/13/1957","06/14/1957","06/24/1957","06/24/1957","D&A","Plugged and Abandoned","3835","2235","KB"," "
"1001289718","15-163-01899","Gish","7","Nadel and Gussman","Nadel and Gussman","Marcotte","10","S","19","W","6"," "," ","NE","SW","SW","990","-4290","SE","-99.4899413","39.2077542","Rooks","04/23/1957","04/29/1957","05/09/1957","11/03/1982","OIL-P&A","Plugged and Abandoned","3766","2234","KB"," "
"1001289723","15-163-02553","Ouderkirk","7","Nadel and Gussman LLC","","Marcotte","10","S","19","W","7"," "," ","SE","NW","NW","4290","-4290","SE","-99.4899267","39.2022758","Rooks","","09/05/1949","09/16/1949","09/16/1949","D&A","Plugged and Abandoned","3835","2226","KB"," "
"1001289731","15-163-03284","Dunlap","5","C-G Drilling Co.","","Marcotte","10","S","19","W","7"," "," ","SW","NW","SW","1650","-4950","SE","-99.492241","39.195002","Rooks","","07/15/1951","07/24/1951","03/09/1954","OIL-P&A","Plugged and Abandoned","3785","2237","KB"," "
"1001289732","15-163-03373","Dunlap","4","C-G Drilling Co.","","Marcotte","10","S","19","W","7"," "," ","NW","SW","SW","990","-4950","SE","-99.4922372","39.1931893","Rooks","","11/18/1950","11/27/1950","03/18/1957","OIL-P&A","Plugged and Abandoned","3781","2230","KB"," "
"1001289241","15-163-02325","PYWELL 'B'","3","MILLER I O OIL CO","Venture Resources, Inc.","Marcotte","9","S","20","W","35"," "," ","SE","NE","NE","4290","-660","SE","-99.5144064","39.2315191","Rooks","","07/15/1955","07/25/1955","","OIL","Producing","3820","2258","KB"," "
"1001289242","15-163-02527","PYWELL 'B'","4","MILLER I O OIL CO","","Marcotte","9","S","20","W","35","C"," ","NW","NE","NE","4950","-990","SE","-99.5155678","39.2333365","Rooks","","08/25/1955","09/05/1955","09/05/1955","D&A","Plugged and Abandoned","3845","2245","KB"," "
"1001289252","15-163-03442","Wilson 'C'","7","Francis Oil and Gas Co.","","Marcotte","9","S","20","W","35","C"," ","NW","SE","SE","990","-990","SE","-99.5155899","39.2224603","Rooks","","09/07/1954","09/19/1954","01/16/1958","OIL-P&A","Plugged and Abandoned","3834","2243","KB"," "
"1001290009","15-163-03070","Towns","2","Birmingham-Bartlett Drilling Co.","","Marcotte","10","S","20","W","4"," "," ","NW","NE","SW","2310","-3630","SE","-99.5621396","39.2116301","Rooks","","11/08/1954","11/17/1954","11/17/1954","D&A","Plugged and Abandoned","3860","2250","KB"," "
"1036762623","15-163-02121-0001","SUTOR","3","Raney Oil Company, LLC","Raney Oil Company, LLC","Marcotte","10","S","20","W","14"," "," ","NW","SE","SE","990","-990","SE","-99.5154663","39.1789345","Rooks","04/13/2007","","","","LOC","Expired Intent to Drill (C-1)","","2213","GL","Arbuckle"
"1001289953","15-163-01997","WILSON 'B'","5","FRANCIS OIL & GAS INC","American Warrior, Inc.","Marcotte","10","S","20","W","1"," "," ","E2","NW","NW","-660","990","NW","-99.5085854","39.2178883","Rooks","","11/02/1952","11/14/1952","","OIL","Producing","3814","2259","KB"," "
"1001289957","15-163-03066","GRAHAM","5","CHAMPLIN REFINING CO","","Marcotte","10","S","20","W","1"," "," ","SW","NW","NE","4290","-2310","SE","-99.5015395","39.216859","Rooks","","09/15/1955","09/24/1955","09/24/1955","D&A","Plugged and Abandoned","3939","2246","KB"," "
"1001290024","15-163-03136","Hall, L. H.","2","Continental Oil Co.","N.F. Producers, Inc.","Marcotte","10","S","20","W","4"," "," ","SW","NW","NW","4290","-4950","SE","-99.5668333","39.2170605","Rooks","","08/30/1947","09/12/1947","08/08/2001","OIL-P&A","Plugged and Abandoned","3838","2257","DF"," "
"1028017316","15-163-20644-0001","HINKHOUSE","3","BOWMAN OIL CO.","","Marcotte","9","S","20","W","33"," "," ","W2","SW","SW","660","-4950","SE","-99.5668716","39.221673","Rooks","08/07/1981","08/11/1981","08/14/1981","","OIL","Recompleted","3887","2263","KB"," "
"1028017317","15-163-20644-0002","HINKHOUSE","3","LANSING ENERGY CORP.","Mai Oil Operations, Inc.","Marcotte","9","S","20","W","33"," "," ","W2","SW","SW","660","-4950","SE","-99.5668716","39.221673","Rooks","","11/07/1990","11/10/1990","05/08/2003","OIL-P&A","Plugged and Abandoned","3887","2263","KB"," "
"1001289714","15-163-04061","Pywell, Charles L.","1","Skelly Oil Co.","","Marcotte","10","S","19","W","6"," "," ","NW","NW","NW","4950","-4950","SE","-99.4922942","39.2186073","Rooks","","09/08/1950","09/29/1950","11/08/1951","OIL-P&A","Plugged and Abandoned","3817","2225","KB"," "
"1001289713","15-163-02541","PYWELL","1","NADEL & GUSSMAN","","Marcotte","10","S","19","W","6"," "," ","SW","NW","SW","1650","-4950","SE","-99.4922749","39.2095438","Rooks","","03/13/1952","03/26/1952","03/26/1952","D&A","Plugged and Abandoned","3834","2235","KB"," "
"1002941249","15-163-00232","HENRY NUTSCH","1","HEATHMAN DRILLING CO. INC","Manuel Corporation","Marcotte","10","S","20","W","3"," ","W2","SW","SW","SW","330","-5072","SE","-99.5485482","39.2062109","Rooks","","09/15/1949","09/28/1949","","OIL","Converted to SWD Well","3834","2244","KB"," "
"1028096968","15-163-19050","Nutsch","4","Okmar Oil Co.","Manuel Corporation","Marcotte","10","S","20","W","3"," "," ","NW","NE","SW","2310","-3630","SE","-99.5434807","39.2116325","Rooks","","11/14/1955","11/29/1955","","OIL","Converted to EOR Well","3800","2241","KB"," "
"1051661732","15-163-21895-0001","BRUEGGEMAN","12","Patterson Energy LLC","Patterson Energy LLC","Marcotte","10","S","20","W","15"," ","E2","SE","SW","NW","2970","-4080","SE","-99.545178","39.1844494","Rooks","","","","","EOR","Authorized Injection Well","3900","2250","KB"," "
"1001290131","15-163-02039","DOWNEY","3","B & R DRLG CO","","Marcotte","10","S","20","W","10","C"," ","NW","SE","SW","990","-3630","SE","-99.5434634","39.1934053","Rooks","","04/09/1952","04/22/1952","04/10/1986","OIL-P&A","Plugged and Abandoned","3776","2216","KB"," "
"1001290104","15-163-03078","VEATCH 'A'","6","OKMAR OIL CO","","Marcotte","10","S","20","W","9"," "," ","SW","SW","NW","2970","-4950","SE","-99.5667888","39.1989921","Rooks","","07/30/1954","08/07/1954","08/07/1954","D&A","Plugged and Abandoned","3870","2255","KB"," "
"1001290109","15-163-03318","VEATCH 'B'","1","HEATHMAN DRILLING CO. INC","","Marcotte","10","S","20","W","9"," "," ","NE","NE","NE","4950","-330","SE","-99.5504558","39.2043226","Rooks","","10/11/1949","10/22/1949","10/22/1949","D&A","Plugged and Abandoned","3808","2189","KB"," "
"1001290148","15-163-02057","CROFFOOT 'B'","1","I.O. MILLER","Trans Pacific Oil Corporation","Marcotte","10","S","20","W","11"," "," ","NW","NW","SE","2310","-2310","SE","-99.5200662","39.196966","Rooks","","02/09/1953","02/20/1953","","OIL","Producing","3770","2229","KB"," "
"1001289950","15-163-04079","WILSON 'B'","1","FRANCIS OIL & GAS INC","","Marcotte","10","S","20","W","1"," "," ","SW","NW","NW","4290","-4950","SE","-99.5108594","39.2169429","Rooks","","10/17/1949","10/29/1949","10/29/1949","D&A","Plugged and Abandoned","3858","2250","DF"," "
"1001290314","15-163-03333","WILLIAMS","3","HEATHMAN DRILLING CO. INC","","Marcotte","10","S","20","W","16"," "," ","S2","NW","NW","4290","-4620","SE","-99.5656066","39.1881292","Rooks","","02/17/1951","02/27/1951","02/27/1951","D&A","Plugged and Abandoned","3881","2249","KB"," "
"1006129073","15-163-23115","Scoggins","2","Calvin Noah","Noah, Calvin","Marcotte","10","S","19","W","18"," "," ","SE","NW","SE","1650","-1650","SE","-99.4805101","39.1806482","Rooks","09/18/1990","09/20/1990","09/27/1990","09/27/1990","D&A","Plugged and Abandoned","3815","2228","KB"," "
"1041096026","15-163-19421","Marcotte","2","Birmingham-Bartlett Drilling Co.","","Marcotte","10","S","19","W","18"," "," ","NW","NE","NW","4950","-3630","SE","-99.4875631","39.1896195","Rooks","","08/22/1949","08/30/1949","08/30/1949","OTHER-P&A","Plugged and Abandoned","2947","",""," "
"1002941704","15-163-00662","KELLER","1","Jones, Shelburne, and Farmer, Inc.","","Marcotte","10","S","19","W","30"," "," ","SW","NW","SE","1650","-2310","SE","-99.4827135","39.1516671","Rooks","","09/22/1954","10/04/1954","10/04/1954","D&A","Plugged and Abandoned","3785","2200","KB"," "
"1001289848","15-163-01943","Marcotte","3","Birmingham-Bartlett Drilling Co.","Okmar Oil Company","Marcotte","10","S","19","W","18"," "," ","SW","SW","NW","2970","-4950","SE","-99.4921801","39.1841208","Rooks","","09/19/1949","10/01/1949","","OIL","Converted to SWD Well","3781","2231","KB"," "
"1001289268","15-163-02454","GISH 'B'","2","FRANCIS OIL & GAS CO., INC.","","Marcotte","9","S","20","W","36","C"," ","NW","SW","SW","990","-4950","SE","-99.5108642","39.222437","Rooks","","12/15/1952","01/01/1953","01/01/1953","D&A","Plugged and Abandoned","3875","2247","KB"," "
"1001289209","15-163-10345","HINKHOUSE OWWO","2","BOWMAN OIL CO","","Marcotte","9","S","20","W","33"," "," ","E2","E2","SE","330","-4950","SE","-99.5668631","39.2207666","Rooks","","08/01/1981","09/10/1981","","D&A"," ","3844","2258","KB"," "
"1001290284","15-163-02149","Stithem","11","NADEL & GUSSMAN","","Marcotte","10","S","20","W","14","C"," ","NW","SE","NE","3630","-990","SE","-99.515413","39.1861855","Rooks","","09/20/1951","09/28/1951","09/16/1982","OIL-P&A","Plugged and Abandoned","3751","2216","KB"," "
"1041341093","15-163-02171-0001","COWGILL","1","Trumart Oil Company","Trumart Oil Company","Marcotte","10","S","20","W","16"," "," ","S2","NW","SW","1650","-4620","SE","-99.5654464","39.1808773","Rooks","","","","08/21/1992","SWD-P&A","Plugged and Abandoned","4293","2224","DF"," "
"1041344507","15-163-20297-0001","Sutor 'B'","1","Chippewa Petroleum Co.","","Marcotte","10","S","20","W","25"," "," ","SE","NW","NE","","","","-99.4991202","39.1587773","Rooks","10/20/1976","10/25/1976","10/26/1976","10/26/1976","D&A","Plugged and Abandoned","1450","2195","KB"," "
"1042195491","15-163-01908-0002","Ouderkirk","3","H & B Petroleum Corp.","H & B Petroleum Corp.","Marcotte","10","S","19","W","7"," "," ","NW","SE","NW","-1650","1650","NW","-99.4874569","39.2005279","Rooks","03/10/2010","03/18/2010","04/30/2010","","OIL","Producing","3784","2230","KB","Arbuckle"
"1041467392","15-163-12278","SUTOR","1","LEBEN DRILLING INC.","","Marcotte","10","S","20","W","24"," "," ","NE","NW","SE","2310","-1650","SE","-99.4991069","39.1678292","Rooks","11/25/1959","11/25/1959","12/03/1959","02/10/1973","OIL-P&A","Plugged and Abandoned","3759","2204","DF"," "
"1001289975","15-163-01993","SUTOR 'A'","9","CHAMPLIN OIL & REFINING CO","Murfin Drilling Co., Inc.","Marcotte","10","S","20","W","1"," "," ","NE","SW","SE","990","-1650","SE","-99.4991626","39.2078591","Rooks","04/13/1964","04/15/1964","04/23/1964","06/28/2012","OIL-P&A","Plugged and Abandoned","3773","2235","KB"," "
"1001290415","15-163-02194","Ouderkirk","6","Midstates Oil Corp.","","Marcotte","10","S","20","W","25","C"," ","NW","NE","SW","2310","-3630","SE","-99.5060385","39.1533834","Rooks","","12/13/1950","01/02/1951","01/18/1958","OIL-P&A","Plugged and Abandoned","3700","2122","KB"," "
"1001290430","15-163-02196","Armbrister 'B'","2","El Dorado Refining Co.","Bowman Oil Company, a General Partnership","Marcotte","10","S","20","W","26"," "," ","NE","SE","SW","990","-2970","SE","-99.5224685","39.1498564","Rooks","06/15/1957","06/19/1957","08/23/1957","","OIL","Producing","3782","2214","KB"," "
"1001290407","15-163-04099","Earl","2","Gulf Oil Corp.","","Marcotte","10","S","20","W","25","C"," ","SW","NW","NW","4290","-4950","SE","-99.5107287","39.1588178","Rooks","","04/02/1950","04/25/1950","07/17/1957","OIL-P&A","Plugged and Abandoned","3726","2144","KB"," "
"1001290411","15-163-02192","Ouderkirk","2","Midstates Oil Corp.","","Marcotte","10","S","20","W","25","C"," ","SE","NW","SW","1650","-4290","SE","-99.5083549","39.1515688","Rooks","","05/08/1950","05/29/1950","01/16/1958","OIL-P&A","Plugged and Abandoned","3689","2110","DF"," "
"1001290255","15-163-02150","STITHEM","12","NADEL & GUSSMAN","Nadel and Gussman LLC","Marcotte","10","S","20","W","14"," "," ","SE","NW","SW","1650","990","SW","-99.5270987","39.1807184","Rooks","","02/13/1952","02/22/1952","","OIL","Producing","3787","2238","KB"," "
"1001290256","15-163-02156","STITHEM","19","NADEL & GUSSMAN","","Marcotte","10","S","20","W","14","C"," ","SW","SW","NE","2970","-2310","SE","-99.5200841","39.1843612","Rooks","","04/08/1956","04/17/1956","09/16/1982","OIL-P&A","Plugged and Abandoned","3750","2222","KB"," "
"1001290268","15-163-02123","MILLER-SUTOR","5","Miller I.O. Oil Co.","","Marcotte","10","S","20","W","14"," "," ","NE","SW","SE","990","-1650","SE","-99.5177952","39.1789287","Rooks","","11/16/1954","11/26/1954","05/03/1968","OIL-P&A","Plugged and Abandoned","3782","2236","KB"," "
"1001290271","15-163-02124","MILLER-SUTOR","6","MILLER I O OIL CO","Raney Oil Company, LLC","Marcotte","10","S","20","W","14"," "," ","SW","SE","SE","330","-970","SE","-99.5154091","39.1771219","Rooks","","11/27/1954","12/07/1954","","OIL","Recompleted","3784","2230","KB"," "
"1001290272","15-163-02122","SUTOR","4","MILLER I O OIL CO","Raney Oil Company, LLC","Marcotte","10","S","20","W","14"," "," ","SE","SE","SE","330","-330","SE","-99.5131508","39.1771275","Rooks","","05/10/1952","05/23/1952","","OIL","Recompleted","3772","2214","KB"," "
"1001290276","15-163-02162","Stithem","25","NADEL & GUSSMAN","Nadel and Gussman","Marcotte","10","S","20","W","14"," "," ","NE","SE","NW","3630","2310","SW","-99.5224757","39.186168","Rooks","01/01/1957","01/19/1957","01/28/1957","07/21/1987","OIL-P&A","Plugged and Abandoned","3779","2239","KB"," "
"1001290287","15-163-02160","STITHEM","23","NADEL & GUSSMAN","Nadel and Gussman","Marcotte","10","S","20","W","14","C"," ","NE","SE","NE","3630","-330","SE","-99.5130841","39.1861913","Rooks","12/05/1956","12/28/1956","01/07/1957","10/15/1985","OIL-P&A","Plugged and Abandoned","3735","2198","KB"," "
"1001290292","15-163-02144","BRUEGGMAN","4","CHAMPLIN REFINING COMPANY","","Marcotte","10","S","20","W","15"," "," ","SE","NE","NW","4290","-2970","SE","-99.5411181","39.1879956","Rooks","","09/13/1949","09/24/1949","11/06/1972","OIL-P&A","Plugged and Abandoned","3760","2212","KB"," "
"1001290119","15-163-02046","ROGERS","3","BARNETT & SHIELDS","Trans Pacific Oil Corporation","Marcotte","10","S","20","W","10"," "," ","NW","NE","NW","4950","-3630","SE","-99.5434522","39.2042816","Rooks","","06/02/1950","08/11/1950","","OIL","Producing","3801","2227","KB"," "
"1001290123","15-163-02043","HINKHOUSE","5","CHAMPLIN OIL & REFINING","Vess Oil Corporation","Marcotte","10","S","20","W","10","C"," ","SW","NW","SE","1650","-2310","SE","-99.5388029","39.1951914","Rooks","","07/02/1952","07/14/1952","","OIL","Recompleted","3826","2246","KB"," "
"1001290133","15-163-03399","SPARKS 'A'","3","BARNETT OIL CO","","Marcotte","10","S","20","W","10","C"," ","SW","SW","NE","2970","-2310","SE","-99.5387992","39.1988168","Rooks","","01/01/1953","01/14/1953","01/14/1953","D&A","Plugged and Abandoned","3848","2253","KB"," "
"1001290139","15-163-02053","CROFFOOT","6","C-G DRILLING CO","Trans Pacific Oil Corporation","Marcotte","10","S","20","W","11"," "," ","NE","NE","SW","2310","-2970","SE","-99.5223955","39.1969641","Rooks","","01/17/1953","01/26/1953","","OIL","Producing","3768","2237","KB"," "
"1001289841","15-163-01965","Olive Anderson","7","Sinclair Oil and Gas Co.","E & B Natural Resources Management Corp.","Marcotte","10","S","19","W","18"," ","W2","SW","NW","NE","4290","-2310","SE","-99.4828924","39.1878679","Rooks","","07/21/1951","08/01/1951","","OIL","Producing","3787","2229","KB"," "
"1030617973","15-163-19009","SUTOR, EARL","2","Gulf Oil Corp.","Dalen Resources Oil and Gas Co.","Marcotte","10","S","20","W","12"," "," ","SW","SW","SE","330","-2310","SE","-99.5014246","39.1914399","Rooks","","02/24/1950","03/16/1950","","OIL","Converted to EOR Well","3776","2224","KB"," "
"1030622609","15-163-02077-0001","SUTOR, EARL","7","Tex/Con Oil and Gas Co.","Vess Oil Corporation","Marcotte","10","S","20","W","12"," "," ","SE","NE","SE","1650","-330","SE","-99.4944403","39.1950024","Rooks","","09/12/1990","09/17/1990","01/23/2001","OIL-P&A","Plugged and Abandoned","3766","2237","KB","Lansing Kansas City"
"1030615495","15-163-19059-0001","DESBIEN","6","BP EXPLORATION, INC.","Vess Oil Corporation","Marcotte","10","S","20","W","12"," "," ","SW","NW","NE","4290","-2310","SE","-99.5014359","39.2023164","Rooks","","11/10/1988","11/22/1988","","OIL","Producing","3789","2225","KB"," "
"1031536486","15-163-23422","Towns","2","Mai Oil Operations, Inc.","Pickrell Drilling Company, Inc.","Wildcat","10","S","20","W","21"," "," "," ","E2","NE","-1350","-720","NE","-99.5515671","39.1725475","Rooks","08/09/2004","08/23/2004","08/28/2004","","OIL","Producing","3812","2187","KB","Arbuckle"
"1035942315","15-163-23554","CROFFOOT 'A'","10","Tengasco, Inc.","Trans Pacific Oil Corporation","Marcotte","10","S","20","W","11"," ","NE","NW","SE","NE","-1350","-800","NE","-99.5147565","39.2014736","Rooks","08/16/2006","09/06/2006","10/23/2006","","OIL","Producing","3824","2218","KB","Lansing, Arbuckle"
"1001290267","15-163-19441-0001","Stithem","16","NADEL & GUSSMAN","Nadel and Gussman LLC","Marcotte","10","S","20","W","14"," "," "," ","W2","W2","2315","-4293","SE","-99.5266592","39.18273","Rooks","01/20/1978","01/23/1978","01/28/1978","","SWD","Authorized Injection Well","4315","2243","KB"," "
"1025718470","15-163-01797-0001","PYWELL","1","WHITE & ELLIS DRILLING CO.","H & H Investments","Marcotte","9","S","20","W","36"," "," ","E2","SE","SE","660","-330","SE","-99.4945597","39.2214102","Rooks","","","","03/30/1970","OIL-P&A","Plugged and Abandoned","","2240","KB"," "
"1002941676","15-163-00636","WILSON 'B'","2, was 1","FRANCIS OIL & GAS INC","American Warrior, Inc.","Marcotte","10","S","20","W","1"," "," ","SE","SE","NW","2970","-2970","SE","-99.5038391","39.2132543","Rooks","","06/28/1952","07/10/1952","","OIL","Producing","3793","2238","KB"," "
"1031679662","15-163-01138-0001","TOWNS","1","KNIGHTON EARL M","Hellar Drilling Company, Inc.","Marcotte","10","S","20","W","21"," "," ","SW","SW","NE","2970","-2310","SE","-99.5571646","39.1698724","Rooks","01/29/1975","01/18/1975","05/15/1975","06/17/1988","OIL-P&A","Plugged and Abandoned","3726","2159","KB"," "
"1030622604","15-163-02076-0002","SUTOR, EARL","6","DALEN RESOURCES OIL AND GAS CO.","Vess Oil Corporation","Marcotte","10","S","20","W","12"," "," ","NW","NE","SE","2310","-990","SE","-99.4967716","39.1968361","Rooks","","09/02/1990","09/07/1990","","OIL","Producing","3855","2237","KB","Lansing Kansas City"
"1030622613","15-163-02081-0002","SUTOR 'B'","1","Tex/Con Oil and Gas Co.","Vess Oil Corporation","Marcotte","10","S","20","W","12"," "," ","SE","SE","SW","330","-2970","SE","-99.503754","39.191461","Rooks","","08/13/1990","08/17/1990","","OIL","Producing","3813","2231","KB","Lansing Kansas City"
"1001290360","15-163-02178","SAYLES","3","CHAMPLIN REFINING CO","Vess Oil Corporation","Marcotte","10","S","20","W","22"," "," ","SE","NW","NW","4290","-4290","SE","-99.5457118","39.1734621","Rooks","","07/25/1947","08/11/1947","","OIL","Producing","3685","2127","DF"," "
"1030617966","15-163-03527-0001","DESBIEN","2","BP Exploration, Inc.","Vess Oil Corporation","Marcotte","10","S","20","W","12"," "," ","SW","SW","NE","2970","-2310","SE","-99.5014321","39.1986909","Rooks","","11/16/1988","01/10/1989","","OIL","Producing","3805","2226","KB","Arbuckle"
"1044141604","15-163-24056","Tomcat 'B'","2","Vess Oil Corp.","Vess Oil Corporation","Marcotte","10","S","20","W","24"," "," ","N2","N2","NW","-330","1320","NW","-99.5073353","39.1752492","Rooks","07/30/2012","08/23/2012","09/13/2012","","OIL","Producing","3718","2161","KB","Arbuckle"
"1028017318","15-163-01137-0001","HINKHOUSE","1","KNIGHTON EARL M","","Marcotte","9","S","20","W","33"," "," ","SW","SW","SW","","","","-99.5668486","39.2207832","Rooks","","09/10/1975","10/01/1975","","D&A"," ","3844","2260","DF"," "
"1002942196","15-163-01137","E. MARCOTTE","1","CONTINENTAL OIL","","Marcotte","9","S","20","W","33","C"," ","SW","SW","SW","","","","-99.5668486","39.2207832","Rooks","","01/03/1945","01/31/1945","05/01/1977","OIL-P&A"," ","3844","2558","GL"," "
"1042656211","15-163-03256-0001","Rogers","2","Raney Oil Co., LLC","Raney Oil Company, LLC","Marcotte","10","S","20","W","23"," "," "," "," ","NW","-1537","330","NW","-99.529421","39.1719594","Rooks","","03/26/2010","04/01/2010","","D&A","Inactive Well","3820","2239","KB"," "
"1039801864","15-163-01151-0003","SUTOR 'A'","9","BOWMAN OIL CO.","Bowman Oil Company, a General Partnership","Marcotte","10","S","20","W","24"," ","N2","SE","NE","NE","4392","-398","SE","-99.494302","39.1734692","Rooks","","","04/06/2009","","SWD","Authorized Injection Well","3920","2223","KB"," "
"1001292550","15-163-02912","Chasey","1","FRANCIS OIL CO.","","Marcotte","9","S","19","W","31"," "," ","W2","SW","SE","660","-2310","SE","-99.4829603","39.2214703","Rooks","","12/19/1952","12/29/1952","12/29/1952","D&A","Plugged and Abandoned","3835","2227","KB"," "
"1006125012","15-163-20932","PYWELL","1","LAWBANCO DRILLING, INC.","Bowman Oil Company, a General Partnership","Marcotte","9","S","20","W","36"," "," ","SW","SE","SE","290","-750","SE","-99.49605","39.220405","Rooks","","06/20/1979","08/27/1979","07/11/2003","OIL-P&A","Plugged and Abandoned","3812","2245","KB"," "
"1006128977","15-163-23065","SUTOR","1-24","BRITO OIL CO. INC.","Brito Oil Company, Inc.","Marcotte","10","S","20","W","24"," ","S2","SE","NW","SW","1475","-4290","SE","-99.5084204","39.1656344","Rooks","11/02/1989","11/13/1989","11/18/1989","11/18/1989","D&A","Plugged and Abandoned","3758","2175","KB"," "
"1006129209","15-163-23184","C. A. DESBIEN","10","HALLWOOD PETROLEUM INC","Hallwood Petroleum, Inc.","Marcotte","10","S","20","W","12"," "," ","NE","NE","NW","-330","-2970","NE","-99.5037693","39.20419","Rooks","10/01/1991","10/22/1991","10/26/1991","10/26/1991","D&A","Plugged and Abandoned","3898","2229","KB"," "
"1051910831","15-163-24421","C-P UNIT","1","Mustang Energy Corporation","Mustang Energy Corporation","Marcotte","10","S","19","W","6"," "," "," ","W2","NW","-1320","660","NW","-99.4910475","39.215979","Rooks","02/24/2021","05/07/2021","05/13/2021","05/13/2021","D&A","Plugged and Abandoned","3824","2239","KB","Arbuckle"
"1044914887","15-163-24264","Dick","9-17","Tengasco, Inc.","Tengasco, Inc.","Marcotte","10","S","19","W","17"," ","SW","NE","NE","NW","-375","2265","NW","-99.4667612","39.1897049","Rooks","10/02/2014","","","","LOC","Expired Intent to Drill (C-1)","","2186","GL","Arbuckle"
"1001289243","15-163-02326","PYWELL 'B'","5 TWIN","MILLER I O OIL CO","Venture Resources, Inc.","Marcotte","9","S","20","W","35"," "," ","SE","SW","NE","2970","-1650","SE","-99.5174508","39.227571","Rooks","","11/10/1955","11/21/1955","07/25/2023","OIL-P&A","Plugged and Abandoned","3792","2253","KB"," "
"1006126811","15-163-21895","BRUEGGEMAN","12","CHAMPLIN PETROLEUM CO.","Patterson Energy LLC","Marcotte","10","S","20","W","15"," ","E2","SE","SW","NW","2970","-4080","SE","-99.5450118","39.184383","Rooks","12/02/1982","12/20/1982","02/05/1983","","OIL","Converted to EOR Well","3900","2250","KB","Topeka And Lansing Kansas City"
"1006128852","15-163-23002","HENRY BERLAND","3-19","MURFIN DRILLING CO","Murfin Drilling Co., Inc.","Marcotte","10","S","19","W","19"," ","N2","NE","SE","SE","1090","-330","SE","-99.4756983","39.1646162","Rooks","","06/10/1988","07/11/1988","04/11/2003","OIL-P&A","Plugged and Abandoned","3850","2197","KB","Arbuckle"
"1006125330","15-163-21090","PYWELL","2","LAWBANCO DRILLING, INC.","The Bill Bowman Oil Company","Marcotte","9","S","20","W","36"," "," "," ","E2","SE","1320","-660","SE","-99.4957115","39.2232314","Rooks","06/04/1980","06/07/1980","04/22/1981","12/03/2013","OIL-P&A","Plugged and Abandoned","3905","2238","KB"," "
"1006123616","15-163-20224","TEALL 'A'","1","SLAWSON, DONALD C.","","Marcotte","10","S","20","W","17"," "," ","NE","NW","SE","2310","-1650","SE","-99.5736761","39.1826188","Rooks","06/20/1969","06/21/1969","06/26/1969","06/26/1969","D&A","Plugged and Abandoned","3570","2253","KB"," "
"1006128385","15-163-22748","HENRY BERLAND","1-19","MURFIN DRILLING CO","Murfin Drilling Co., Inc.","Marcotte","10","S","19","W","19"," ","SE","SW","NE","SE","1630","-853","SE","-99.4771214","39.1660997","Rooks","08/20/1965","08/20/1985","09/13/1985","11/04/2008","OIL-P&A","Plugged and Abandoned","3870","2215","KB","Arbuckle"
"1006127001","15-163-21997","Tomasheck","1","J-V Oil Operations","Heit, J. A. - Oil Operations","Marcotte","10","S","19","W","31"," "," ","W2","NW","NE","-660","-2310","NE","-99.482724","39.1453224","Rooks","03/17/1983","03/21/1983","03/27/1983","03/27/1983","D&A","Plugged and Abandoned","3800","2212","KB"," "
"1006124948","15-163-20900","Marcotte","10","CHAMPLIN PETROLEUM CO","Vess Oil Corporation","Marcotte","10","S","20","W","15"," "," ","NW","SW","SE","990","-2310","SE","-99.5387314","39.1789241","Rooks","03/07/1979","03/10/1979","03/24/1979","12/09/1996","OIL-P&A","Plugged and Abandoned","3702","2170","KB"," "
"1001289251","15-163-02453","Wilson 'C'","6","Francis Oil and Gas Co.","","Marcotte","9","S","20","W","35","C"," ","SE","NW","SE","1650","-1650","SE","-99.5179165","39.2242826","Rooks","","06/04/1954","06/16/1954","06/16/1954","D&A","Plugged and Abandoned","3875","2250","KB"," "
"1001289244","15-163-02530","PYWELL 'B'","6","MILLER I O OIL CO","","Marcotte","9","S","20","W","35","C"," ","NE","SW","NE","3630","-1650","SE","-99.5179054","39.2297207","Rooks","11/05/1956","11/02/1956","11/12/1956","11/13/1956","D&A","Plugged and Abandoned","3865","2251","KB"," "
"1002941694","15-163-00653","Wilson 'C'","4","Francis Oil and Gas Co.","Kaiser-Francis Oil Company","Marcotte","9","S","20","W","35"," "," ","SW","SE","NE","2970","-990","SE","-99.5155788","39.2278984","Rooks","","02/18/1954","03/07/1954","01/23/1992","OIL-P&A","Plugged and Abandoned","3863","2252","KB"," "
"1006127025","15-163-22007","C. A. DESBIEN","9","ENERGY RESERVES GROUP, INC.","Energy Reserves Group, Inc.","Marcotte","10","S","20","W","12"," "," ","NE","SE","NW","-1650","2310","NW","-99.5037744","39.2005646","Rooks","03/28/1983","04/24/1983","05/06/1983","05/06/1983","D&A","Plugged and Abandoned","3835","2223","KB"," "
"1006125208","15-163-21031","ROGERS 'B'","7","CHAMPLIN PETROLEUM COMPANY","","Marcotte","10","S","20","W","23"," "," ","SW","SE","NE","2970","-990","SE","-99.5154855","39.1697869","Rooks","01/11/1980","04/09/1980","05/02/1980","05/21/1980","OIL-P&A","Plugged and Abandoned","3820","2219","KB"," "
"1006128525","15-163-22826","HENRY BERLAND","2-19","MURFIN DRILLING CO","Murfin Drilling Co.","Marcotte","10","S","19","W","19"," ","NE","NE","SW","SE","1120","-1520","SE","-99.4798968","39.164651","Rooks","11/19/1985","11/30/1985","12/07/1985","12/08/1985","D&A","Plugged and Abandoned","3872","2223","KB"," "
"1006125391","15-163-21123","PYWELL 'B'","8","I.O. MILLER OIL CO.","Venture Resources, Inc.","Marcotte","9","S","20","W","35"," "," ","S2","N2","NE","4270","-1320","SE","-99.5167367","39.2314737","Rooks","07/14/1980","07/10/1980","07/25/1980","","OIL","Producing","3850","2238","KB"," "
"1027706251","15-163-02083-0001","SUTOR 'B'","3","BP Exploration, Inc.","Dalen Resources Oil and Gas Co.","Marcotte","10","S","20","W","12"," "," ","SE","NE","SW","1650","-2970","SE","-99.5037577","39.1950865","Rooks","","10/28/1988","11/17/1988","","OIL","Recompleted","3820","2222","KB","Arbuckle"
"1006124649","15-163-20754","DICK","4","FRONTIER OIL CO.","Trans Pacific Oil Corporation","Marcotte","10","S","19","W","17"," ","NE","NW","NE","NW","4950","-3630","SE","-99.4690226","39.1897806","Rooks","10/26/1977","11/07/1977","11/20/1977","","OIL","Producing","3759","2191","KB"," "
"1037891116","15-163-23703","Wilson 'B'","10","American Warrior, Inc.","American Warrior, Inc.","Marcotte","10","S","20","W","1"," ","W2","E2","SE","NW","-2000","2100","NW","-99.5046275","39.2141787","Rooks","03/07/2008","08/18/2008","10/20/2008","","OIL","Producing","3864","2245","KB","Lansing, Arbuckle"
"1043623028","15-163-23948","Berland","1-A","Meridian Energy Inc.","Bowman Oil Company, a General Partnership","Marcotte","10","S","19","W","19"," "," ","NW","SE","NW","-1650","1650","NW","-99.4873907","39.1714792","Rooks","03/31/2011","04/13/2011","06/28/2011","09/18/2019","OIL-P&A","Plugged and Abandoned","3869","2233","KB","Arbuckle"
"1046097137","15-163-02150-0001","STITHEM 12","12","Nadel and Gussman LLC","Nadel and Gussman LLC","Marcotte","10","S","20","W","14"," "," ","SE","NW","SW","1650","-4290","SE","-99.5270974","39.1807184","Rooks","09/21/2016","","","","LOC","Expired Intent to Drill (C-1)","","2226","GL","Arbuckle"
"1006127670","15-163-22356","Tomasheck","1","Woodman-Iannitti Oil Co.","Woodman & Iannitti Oil Company","Marcotte","10","S","19","W","31"," "," ","NW","SE","NE","3630","-990","SE","-99.4780416","39.1425603","Rooks","04/17/1984","08/04/1984","08/08/1984","08/08/1984","D&A","Plugged and Abandoned","3785","2191","KB"," "
"1006129341","15-163-23253","C. A. DESBIEN","11","HALLWOOD PETROLEUM INC","Hallwood Petroleum, Inc.","Marcotte","10","S","20","W","12"," "," ","SW","NE","NW","4290","-3630","SE","-99.5060945","39.2023585","Rooks","09/22/1994","10/13/1994","10/19/1994","10/19/1994","D&A","Plugged and Abandoned","3915","2227","KB"," "
"1038328971","15-163-00232-0002","Nutsch","1","Berexco LLC","BEREXCO LLC","Marcotte","10","S","20","W","3"," ","W2","SW","SW","SW","333","-5072","SE","-99.5480998","39.2061903","Rooks","","","","","SWD","Authorized Injection Well","4134","2244","KB"," "
"1006129089","15-163-23123","KELLER 'B'","2","AFG Energy Inc.","AFG Energy, Inc.","Marcotte","10","S","19","W","30"," "," ","N2","N2","SE","2310","-1320","SE","-99.47921","39.1535086","Rooks","10/15/1990","10/23/1990","10/28/1990","10/28/1990","D&A","Plugged and Abandoned","3850","2115","KB"," "
"1006129505","15-163-30041","CODDINGTON","1","LEO J. DREILING OIL CO","","Marcotte","10","S","20","W","2"," "," ","W2","NW","SE","1980","-2310","SE","-99.5201594","39.2106416","Rooks","","06/02/1965","06/09/1965","07/22/1967","OIL-P&A","Plugged and Abandoned","3827","2243","KB"," "
"1006129509","15-163-30044","PYWELL","1","GLICKMAN OIL CO.","","Marcotte","9","S","20","W","36"," "," ","SE","NE","SE","1650","-330","SE","-99.4945397","39.2241292","Rooks","07/08/1965","07/15/1965","07/27/1965","07/27/1965","D&A","Plugged and Abandoned","3808","2219","KB"," "
"1001290202","15-163-03248","DESBIEN","7","SOHIO PETROLEUM CORP.","","Marcotte","10","S","20","W","12"," "," ","NW","NW","NE","4950","-2310","SE","-99.5014377","39.2041292","Rooks","","11/12/1952","11/29/1952","11/29/1952","D&A","Plugged and Abandoned","3854","2224","KB"," "
"1001290195","15-163-03082","C. A. DESBIEN","7","Continental Oil Co.","","Marcotte","10","S","20","W","12"," "," ","SE","NW","NW","4290","-4290","SE","-99.5084239","39.2023795","Rooks","","05/15/1956","05/25/1956","05/25/1956","D&A","Plugged and Abandoned","3856","2227","KB"," "
"1039253972","15-163-21156-0001","KELLER 'C' (SE)","1","Bowman Oil Company, a General Partnership","Bowman Oil Company, a General Partnership","Marcotte","10","S","19","W","30"," "," ","SW","SW","SE","330","-2310","SE","-99.482731","39.1483298","Rooks","02/03/2009","05/11/2009","09/22/2009","09/24/2009","D&A","Plugged and Abandoned","3668","2220","KB","Arbuckle"
"1001290157","15-163-02079","CROFFOOT 'B'","10","I.O. MILLER","Tengasco, Inc.","Marcotte","10","S","20","W","11"," "," ","NE","SW","SE","990","-1650","SE","-99.5177217","39.1933424","Rooks","06/15/1957","06/18/1957","06/30/1957","04/01/2014","OIL-P&A","Plugged and Abandoned","3784","2229","KB"," "
"1001290403","15-163-02348","Sutor 'A'","5","Birmingham-Bartlett Drilling Co.","","Marcotte","10","S","20","W","24"," "," ","NE","SW","NE","3630","-1650","SE","-99.4991069","39.1714547","Rooks","","11/20/1949","11/30/1949","07/26/1974","OIL-P&A","Plugged and Abandoned","3640","2205","KB"," "
"1001289967","15-163-03381","SUTOR 'A'","1","CHAMPLIN REFINING CO","","Marcotte","10","S","20","W","1"," "," ","SW","SW","SW","330","-4950","SE","-99.5107684","39.2060657","Rooks","","05/29/1951","06/10/1951","06/10/1951","D&A","Plugged and Abandoned","3850","2224","KB"," "
"1034572286","15-163-01146-0002","CODDINGTON","3","Trans Pacific Oil Corp.","Trans Pacific Oil Corporation","Marcotte","10","S","20","W","2"," ","W2","NW","SE","SE","966","-1081","SE","-99.515382","39.2078097","Rooks","","","","","SWD","Authorized Injection Well","1442","2222","DF"," "
"1001289212","15-163-03511","MARCOTTE","3","LOHMANN-JOHNSON","","Marcotte","9","S","20","W","33","C"," ","SW","SW","SE","330","-2310","SE","-99.5575417","39.2207361","Rooks","","10/13/1948","11/17/1948","04/01/1954","OIL-P&A","Well Drilled","3840","2261","DF"," "
"1001289842","15-163-01948","Marcotte","8","Morris Sitrin, Inc.","Okmar Oil Company","Marcotte","10","S","19","W","18"," "," ","NW","SE","NW","3545","-3884","SE","-99.4884307","39.1857492","Rooks","","06/17/1951","06/30/1951","11/07/1985","OIL-P&A","Plugged and Abandoned","3778","2230","KB"," "
"1006126640","15-163-21796","M. Thomas","2-18","Murfin Drilling Co., Inc.","Murfin Drilling Co.","Marcotte","10","S","19","W","18"," ","NW","SE","SE","SE","475","-550","SE","-99.4766052","39.1774721","Rooks","09/03/1982","09/05/1982","09/11/1982","09/11/1982","D&A","Plugged and Abandoned","3852","2213","KB"," "
"1006123402","15-163-20107","Anderson","11","O.F.S., Inc.","","Marcotte","10","S","19","W","18"," "," ","SW","NE","NE","4290","-990","SE","-99.4782352","39.1879289","Rooks","04/26/1968","04/24/1968","05/01/1968","05/01/1968","D&A","Plugged and Abandoned","3860","2218","KB"," "
"1001289819","15-163-01969","Lillian Scoggins","10","Skelly Oil Co.","","Marcotte","10","S","19","W","18"," "," ","SE","NW","SW","1650","-4290","SE","-99.4898246","39.1805262","Rooks","","09/24/1950","10/09/1950","05/15/1973","OIL-P&A","Plugged and Abandoned","3835","2235","KB"," "
"1001289820","15-163-02729","Lillian Scoggins","13","Skelly Oil Co.","","Marcotte","10","S","19","W","18"," "," ","SE","NE","SE","1650","-330","SE","-99.4758529","39.1807092","Rooks","","01/23/1955","02/05/1955","02/08/1955","D&A","Plugged and Abandoned","3867","2206","DF"," "
"1031882916","15-163-00989-0001","KELLER","1","COLLINS J B & BOYER J C","Keller-Davis, Helen A(Deceased)","Marcotte","10","S","20","W","36"," "," ","NE","NE","SW","2310","-2970","SE","-99.5036341","39.1389151","Rooks","09/30/1974","09/21/1974","09/21/1974","10/13/1998","OIL-P&A","Plugged and Abandoned","3730","2123","KB","Lansing Group"
"1041231766","15-163-02048-0001","Croffoot","1","Tengasco, Inc.","Trans Pacific Oil Corporation","Marcotte","10","S","20","W","11"," ","W2","SW","SW","SW","314","-5084","SE","-99.5294806","39.1915011","Rooks","","","","","SWD","Authorized Injection Well","3777","2208","DF"," "
"1030615469","15-163-02081-0001","SUTOR 'B'","1","BP EXPLORATION, INC","Dalen Resources Oil and Gas Co.","Marcotte","10","S","20","W","12"," "," ","SE","SE","SW","330","-2970","SE","-99.503754","39.191461","Rooks","","11/10/1988","02/29/1988","","OIL","Recompleted","3813","2231","KB","Arbuckle"
"1030615501","15-163-22502-0001","DESBIEN","9","SOHIO PETROLEUM CO","Vess Oil Corporation","Marcotte","10","S","20","W","12"," ","NW","SE","NW","NE","4595","-1665","SE","-99.4991603","39.2031336","Rooks","","08/23/1985","08/23/1985","04/06/2001","OIL-P&A","Plugged and Abandoned","4133","2226","KB"," "
"1037335171","15-163-00432-0001","Sparks 'A'","1","Barnett Drilling","Trans Pacific Oil Corporation","Marcotte","10","S","20","W","10"," "," ","SW","NW","NE","-990","-2310","NE","-99.5387971","39.2025536","Rooks","","01/01/1952","11/21/1951","","OIL","Producing","3832","2248","DF"," "
"1001290274","15-163-02157","Stithem","20","NADEL & GUSSMAN","Nadel and Gussman LLC","Marcotte","10","S","20","W","14"," "," ","SW","SE","NW","2970","1650","SW","-99.524793","39.1843496","Rooks","","04/30/1956","05/09/1956","05/09/2014","OIL-P&A","Plugged and Abandoned","3786","2243","KB"," "
"1036041707","15-163-23557","Anderson","14","Lario Oil and Gas Co.","Lario Oil & Gas Company","Marcotte","10","S","19","W","18"," "," "," ","N2","NE","4592","-1385","SE","-99.479635","39.18874","Rooks","09/22/2006","11/11/2006","01/23/2007","","SWD","Recompleted","4300","2217","KB","Lansing, Arbuckle"
"1002942206","15-163-01142","MILLER-SUTOR","1","MILLER, I. O. OIL CO.","","Marcotte","10","S","20","W","14"," "," ","NW","SW","SE","987","-2307","SE","-99.5201136","39.1789147","Rooks","","08/01/1951","08/29/1951","12/05/1969","OIL-P&A","Plugged and Abandoned","3784","2235","KB"," "
"1001290265","15-163-02146","MILLER-SUTOR","9","I.O. MILLER","","Marcotte","10","S","20","W","14"," "," ","NW","SW","SE","1000","3030","SW","-99.5198892","39.178951","Rooks","09/10/1956","09/06/1956","09/18/1956","12/12/1969","OIL-P&A","Plugged and Abandoned","3784","2235","KB"," "
"1001290257","15-163-02118","ELIZA","7","NADEL & GUSSMAN","Nadel and Gussman","Marcotte","10","S","20","W","14","C"," ","SE","NW","SE","1650","-1650","SE","-99.5177819","39.1807415","Rooks","","04/20/1950","04/29/1956","02/10/1984","OIL-P&A","Plugged and Abandoned","3753","2221","KB"," "
"1044065207","15-163-24008","Miller-Sutor Unit","1-A","Raney Oil Company, LLC","Bach Oil Production","Marcotte","10","S","20","W","14"," ","S2","SE","SW","SE","130","-1650","SE","-99.5178126","39.1765666","Rooks","02/14/2012","03/09/2012","03/26/2012","","OIL","Producing","3840","2236","KB","Arbuckle"
"1006124956","15-163-20904","Keller","1","R.P. NIXON OPERATIONS","R. P. Nixon Operations, Inc","Marcotte","10","S","19","W","31"," "," ","NW","NE","NW","-330","1650","NW","-99.4873717","39.1461905","Rooks","","04/05/1979","04/05/1979","12/28/1992","OIL-P&A","Plugged and Abandoned","3765","2208","KB"," "
"1053284486","15-163-00652-0001","ALVIN WILLIAMS","1","James P. Williams Enterprises, Inc.","James P. Williams Enterprises, Inc.","Marcotte","10","S","20","W","16"," "," ","NW","NW","NW","-330","330","NW","-99.5667044","39.189928","Rooks","04/18/2023","","","","OIL","Spudded","3828","2241","GL","Arbuckle"
"1001288185","15-163-22674","ARMBRISTER 'A'","3","AMERICAN PETROFINA CO. OF TEXAS","Fina Oil and Chemical Company","Marcotte","10","S","20","W","35","C"," ","E2","NW","NW","4620","-4290","SE","-99.5270952","39.1452732","Rooks","04/22/1985","","","","LOC","Expired Intent to Drill (C-1)","","2175","KB"," "
"1006127944","15-163-22502","DESBIEN","9","SOHIO PETRO CO","BP Exploration, Inc.","Marcotte","10","S","20","W","12"," ","NW","SE","NW","NE","4595","-1665","SE","-99.4991603","39.2031336","Rooks","11/15/1984","12/04/1984","01/19/1985","","OIL","Recompleted","4133","2226","KB","Lansing-Kansas City"
"1006129575","15-163-30132","ARMBRISTER","1","CHIEF DRILLING CO INC","","Marcotte","10","S","20","W","35"," "," ","NE","NW","SW","2310","-4290","SE","-99.5270017","39.1389286","Rooks","09/07/1965","09/03/1965","09/11/1965","09/11/1965","D&A","Plugged and Abandoned","3736","2136","KB"," "
"1002941307","15-163-00285","R. E. TEALL","1","Gulf Oil Corp.","","Marcotte","10","S","20","W","35"," "," ","NE","NE","NE","-330","-330","NE","-99.5131437","39.146139","Rooks","","01/30/1950","02/15/1950","02/15/1950","D&A","Plugged and Abandoned","3913","2167","KB"," "
"1001290552","15-163-02238","B. TEALL","1","MIDSTATES OIL CORP.","Hi-Kat Petroleum Company","Marcotte","10","S","20","W","35","C"," ","NW","NW","NE","4950","-2310","SE","-99.5201263","39.1461796","Rooks","","08/14/1951","08/27/1951","08/01/1989","OIL-P&A","Plugged and Abandoned","3779","2197","KB","Arbuckle"
"1001290420","15-163-03490","SUTOR 'A'","2","NADEL & GUSSMAN","","Marcotte","10","S","20","W","26","C"," ","SE","NE","SE","1650","-330","SE","-99.5131569","39.1515773","Rooks","","12/15/1950","12/30/1950","12/30/1950","D&A","Plugged and Abandoned","3801","2176","KB"," "
"1001290175","15-163-19010","SUTOR, EARL","3","Gulf Oil Corp.","Dalen Resources Oil and Gas Co.","Marcotte","10","S","20","W","12"," "," ","NW","SW","SE","990","-2310","SE","-99.5014265","39.1932527","Rooks","","07/01/1950","08/06/1950","","OIL","Recompleted","3773","2232","KB"," "
"1001289966","15-163-02356","WILSON 'B'","9","FRANCIS OIL & GAS CO","Kaiser-Francis Oil Company","Marcotte","10","S","20","W","1"," "," ","SE","NE","NW","4290","-2970","SE","-99.5038694","39.21688","Rooks","","06/27/1955","07/09/1955","01/21/1986","OIL-P&A","Plugged and Abandoned","3806","2248","KB"," "
"1001289990","15-163-02002","CODDINGTON","4","BARNETT OIL CO","Zinszer Oil Co., Inc.","Arbuckle","10","S","20","W","2"," "," ","NW","SW","SE","990","-2310","SE","-99.520131","39.2079224","Rooks","","12/06/1953","12/18/1953","","OIL","Converted to SWD Well","3816","2239","KB"," "
"1001289250","15-163-03441","Wilson 'C'","5","Francis Oil and Gas Co.","American Warrior, Inc.","Marcotte","9","S","20","W","35"," "," ","S2","NE","SE","1650","-660","SE","-99.5144211","39.2242683","Rooks","","05/20/1954","06/02/1954","","OIL","Producing","3788","2244","KB"," "
"1001290016","15-163-03141","Glick","4","Heathman Drilling Co.","BEREXCO LLC","Marcotte","10","S","20","W","4"," "," ","E2","SE","SE","660","-330","SE","-99.5504724","39.2070491","Rooks","","11/08/1949","11/20/1949","07/07/2021","OIL-P&A","Plugged and Abandoned","3771","2195","KB"," "
"1001290025","15-163-03135","Hall, L. H.","1","Continental Oil Co.","N.F. Producers, Inc.","Marcotte","10","S","20","W","4"," "," ","NE","NW","NW","4950","-4290","SE","-99.5645149","39.218877","Rooks","","06/17/1944","07/11/1944","08/08/2001","OIL-P&A","Plugged and Abandoned","3833","2244","DF"," "
"1037551130","15-163-19368","ARMBRISTER 'A'","1","EL DORADO REFINING CO","","Marcotte","10","S","20","W","35"," "," ","NW","NE","NW","4950","1650","SW","-99.5247241","39.1461796","Rooks","10/05/1956","10/11/1956","11/23/1956","","OIL","Well Drilled","3775","2191","KB"," "
"1041111638","15-163-19050-0002","Nutsch","4","Berexco LLC","BEREXCO LLC","Marcotte","10","S","20","W","3"," "," ","NW","NE","SW","2332","-3732","SE","-99.543841","39.2116941","Rooks","","","","","OIL","Producing","3800","2241","KB"," "
"1001290010","15-163-03071","Hall-Miller","2","Mallonee Drilling Co.","","Marcotte","10","S","20","W","4"," "," ","NE","SW","NW","3630","-4290","SE","-99.5644921","39.2152516","Rooks","07/12/1957","07/19/1957","08/04/1957","08/20/1957","D&A","Plugged and Abandoned","3832","2249","KB"," "
"1037023942","15-163-19347","MILLER","5","OKMAR OIL COMPANY","Manuel Corporation","Marcotte","9","S","20","W","32"," "," ","SW","SW","SE","330","-2310","SE","-99.5761687","39.2207704","Rooks","05/08/1959","05/13/1959","05/23/1959","09/27/1993","OIL-P&A","Plugged and Abandoned","3801","2224","KB"," "
"1001289979","15-163-03387","MARCOTTE","1","COPPINGER W J","","Marcotte","10","S","20","W","2"," "," ","SE","SE","NW","2970","-2970","SE","-99.5225177","39.2133702","Rooks","","07/25/1952","08/09/1952","08/09/1952","D&A","Plugged and Abandoned","3850","2247","DF"," "
"1044251018","15-163-24116","Nutsch-Buss 'A' Unit","1-2","Trans Pacific Oil Corp.","Trans Pacific Oil Corporation","Marcotte","10","S","20","W","2"," ","W2","W2","NW","SW","1980","100","SW","-99.5303098","39.2106828","Rooks","05/01/2013","05/06/2013","06/12/2013","","OIL","Producing","3815","2257","KB","Arbuckle"
"1044751048","15-163-03329-0001","Moore","#1 SWD","Venture Resources, Inc.","Venture Resources, Inc.","Marcotte","10","S","20","W","14"," "," ","SW","SW","SW","330","-4950","SE","-99.529453","39.1770871","Rooks","01/02/2014","01/08/2014","03/04/2014","","SWD","Authorized Injection Well","4332","2228","KB"," "
"1044041341","15-163-23997","Coddington","6","Tengasco, Inc.","Trans Pacific Oil Corporation","Marcotte","10","S","20","W","2"," "," ","SW","SW","SE","330","-2310","SE","-99.5201121","39.2061096","Rooks","12/22/2011","12/30/2011","01/16/2012","","OIL","Producing","3900","2237","KB","Lansing"
"1002941280","15-163-00262","Stithem","1","FERRIER & TIERNEY OIL","","Marcotte","10","S","20","W","14"," "," ","SW","SW","NW","2970","-4950","SE","-99.5293996","39.1843382","Rooks","","09/13/1945","10/02/1945","11/11/1945","D&A","Plugged and Abandoned","3790","2226","KB"," "
"1001290166","15-163-02049","CROFFOOT","2","I.O. MILLER INC","Miller, I. O., Inc.","Marcotte","10","S","20","W","11"," "," ","SW","NW","SW","1650","-4950","SE","-99.5293759","39.1951458","Rooks","","12/09/1949","12/20/1949","12/13/1983","OIL-P&A","Plugged and Abandoned","3803","2228","KB"," "
"1001290121","15-163-02041","HINKHOUSE","2","CHAMPLIN OIL & REFG","Vess Oil Corporation","Marcotte","10","S","20","W","10"," "," ","SE","SE","SE","330","-330","SE","-99.5318187","39.191526","Rooks","","03/06/1950","03/18/1950","12/09/1996","OIL-P&A","Plugged and Abandoned","3798","2218","KB"," "
"1005729604","15-163-02155","STITHEM","18","NADEL & GUSSMAN","","Marcotte","10","S","20","W","14","C"," ","S2","SE","NE","2970","-660","SE","-99.5142619","39.1843757","Rooks","","03/17/1954","03/29/1954","09/16/1982","OIL-P&A","Plugged and Abandoned","3744","2209","KB"," "
"1002941192","15-163-00181","STITHEM","1","NADEL & GUSSMAN","","Marcotte","10","S","20","W","14"," "," ","NE","NE","NE","-330","-330","NE","-99.5130583","39.1897207","Rooks","","01/08/1949","01/23/1949","01/23/1949","D&A","Plugged and Abandoned","3850","2202","DF"," "
"1006123883","15-163-20361","SUTOR 'A'","14","Champlin Petroleum Co.","Murfin Drilling Co., Inc.","Marcotte","10","S","20","W","1"," ","S2","NE","SE","SE","890","-330","SE","-99.4944714","39.2074571","Rooks","04/01/1971","04/01/1971","04/10/1971","06/22/2012","OIL-P&A","Plugged and Abandoned","3715","2237","KB","Lansing"
"1044174936","15-163-01988","GRAHAM","3","TEX/CON OIL & GAS CO","Dalen Resources Oil and Gas Co.","Marcotte","10","S","20","W","1"," "," ","SW","SW","NE","2970","-2310","SE","-99.5015091","39.2132333","Rooks","","07/13/1952","08/11/1952","","OIL","Recompleted","3785","2246","KB"," "
"1001289968","15-163-03067","SUTOR 'A'","7","CHAMPLIN REFINING CO","","Marcotte","10","S","20","W","1"," "," ","NW","NE","SE","2310","-990","SE","-99.496834","39.2113785","Rooks","","06/19/1954","06/30/1954","06/30/1954","D&A","Plugged and Abandoned","3860","2239","KB"," "
"1035119453","15-163-19260-0001","WILSON 'A'","3","FRANCIS OIL & GAS CO","T & P Oil & Gas, L.L.C.","Marcotte","10","S","20","W","2"," ","W2","SE","SW","NE","2979","-1751","SE","-99.5177413","39.2133398","Rooks","","10/22/1957","10/30/1957","","SWD","Recompleted","4322","2232","KB"," "
"1044162564","15-163-24070","Sutor 'B'","5","Raney Oil Company, LLC","Bach Oil Production","Marcotte","10","S","20","W","13"," ","S2","NE","NW","NE","-375","-1650","NE","-99.4990953","39.1894826","Rooks","08/30/2012","10/04/2012","10/17/2012","","OIL","Producing","3836","2209","KB","Arbuckle"
"1031536470","15-163-01999-0001","WILSON 'B'","7","Raney Oil Company, LLC","American Warrior, Inc.","Marcotte","10","S","20","W","1"," "," ","NW","NE","NW","-330","-3630","NE","-99.5062178","39.2187772","Rooks","08/31/2004","","","","OIL","Producing","4452","2257","KB","Arbuckle"
"1001289265","15-163-01793","GISH 'B'","6","FRANCIS OIL & GAS INC.","Kaiser-Francis Oil Company","Marcotte","9","S","20","W","36"," "," ","E2","SW","SW","660","-4290","SE","-99.5085407","39.2215134","Rooks","","07/27/1955","08/07/1955","02/09/1988","OIL-P&A","Plugged and Abandoned","3786","2253","KB"," "
"1037027115"," ","CROFFOOT 'C'","2","MILLER I O OIL CO","","Marcotte","10","S","20","W","11"," "," ","SE","SE","NW","","","","-99.5224543","39.1988282","Rooks","","06/01/1953","06/13/1953","","OIL"," ","3775","2234","KB"," "
"1001290247","15-163-02158","Stithem","21","NADEL & GUSSMAN","Nadel and Gussman LLC","Marcotte","10","S","20","W","14"," "," ","NE","SW","NE","-1650","-1650","NE","-99.5177437","39.1860915","Rooks","","05/22/1956","06/02/1956","","OIL","Producing","3756","2227","KB"," "
"1001289264","15-163-01792","GISH 'B'","3","FRANCIS OIL & GAS CO., INC.","","Marcotte","9","S","20","W","36"," "," ","NW","NW","SW","2310","-4950","SE","-99.5108375","39.2260622","Rooks","","01/10/1955","01/20/1955","12/20/1972","OIL-P&A","Plugged and Abandoned","3809","2253","KB"," "
"1002941937","15-163-00881","C. STEEPLES","1","K & E DRILLING, INC. AND OIL TRADING ASSOCIATES, INC.","","Marcotte","9","S","20","W","36"," "," ","SW","NW","NE","4290","-2310","SE","-99.5014769","39.2314313","Rooks","","04/08/1955","04/16/1955","04/17/1955","D&A","Plugged and Abandoned","3850","2239","KB"," "
"1031640080","15-163-01792-0001","KEAS 'A'","3","Raney Oil Company, LLC","American Warrior, Inc.","Marcotte","9","S","20","W","36"," "," ","NW","NW","SW","2310","-4950","SE","-99.5108375","39.2260622","Rooks","09/28/2004","11/01/2004","11/11/2004","","OIL","Producing","3808","2253","KB","Arbuckle"
"1001289965","15-163-03382","SUTOR 'A'","2","CHAMPLIN REFINING CO","","Marcotte","10","S","20","W","1"," "," ","NW","SE","SW","990","-3630","SE","-99.5061236","39.2078367","Rooks","","11/09/1951","11/24/1951","11/24/1951","D&A","Plugged and Abandoned","3926","2241","KB"," "
"1001289261","15-163-01796","GISH 'C'","3","FRANCIS OIL & GAS CO., INC.","","Marcotte","9","S","20","W","36"," ","E2","W2","SW","NW","3300","-4740","SE","-99.5100761","39.2287757","Rooks","","10/20/1955","10/30/1955","12/20/1972","OIL-P&A","Plugged and Abandoned","3818","2260","KB"," "
"1006126129","15-163-21505","SUTOR 'A'","21","CHAMPLIN PETROLEUM CO.","Murfin Drilling Co., Inc.","Marcotte","10","S","20","W","1"," ","NE","SW","SE","SE","372","-948","SE","-99.4966416","39.2061006","Rooks","11/25/1981","11/24/1981","01/08/1982","08/30/2012","OIL-P&A","Plugged and Abandoned","3780","2232","KB"," "
"1033932248","15-163-23510","GRAHAM-SUTOR UNIT","1","Vess Oil Corp.","Vess Oil Corporation","Marcotte","10","S","20","W","1"," ","S2","SE","SE","NE","2730","-330","SE","-99.4945137","39.2125111","Rooks","01/11/2006","02/04/2006","03/06/2006","","OIL","Producing","3784","2238","KB","Arbuckle"
"1001289266","15-163-01797","PYWELL","1","SUNRAY OIL CORP.","","Marcotte","9","S","20","W","36"," "," ","E2","SE","SE","660","-330","SE","-99.4945597","39.2214102","Rooks","","12/16/1950","12/31/1950","03/30/1970","OIL-P&A","Plugged and Abandoned","3786","2240","KB"," "
"1001289273","15-163-02455","GISH 'B'","5","HERMAN GEO. KAISER","","Marcotte","9","S","20","W","36","C"," ","NW","SE","NW","3630","-3630","SE","-99.5061505","39.229653","Rooks","","03/31/1955","04/13/1955","04/13/1955","D&A","Plugged and Abandoned","3830","2235","KB"," "
"1006123887","15-163-20363","SUTOR 'A'","15","Champlin Petroleum Co.","Murfin Drilling Co., Inc.","Marcotte","10","S","20","W","1"," ","S2","S2","N2","SE","1600","-1320","SE","-99.4979916","39.2092301","Rooks","04/08/1971","04/10/1971","04/19/1971","05/22/2012","OIL-P&A","Plugged and Abandoned","3770","2233","KB"," "
"1001289272","15-163-01795","GISH 'C'","2","FRANCIS OIL & GAS CO., INC.","","Marcotte","9","S","20","W","36"," "," ","NW","SW","NW","3630","-4950","SE","-99.5108108","39.2296874","Rooks","","06/13/1955","06/26/1955","05/01/1985","OIL","Recompleted","3829","2261","KB"," "
"1040792563","15-163-23811","Tomcat 'C'","1","Vess Oil Corp.","Vess Oil Corporation","Marcotte","10","S","20","W","24"," ","SW","NE","SW","SW","710","910","SW","-99.5087827","39.1635371","Rooks","06/30/2009","08/30/2009","09/07/2009","09/07/2009","D&A","Plugged and Abandoned","3770","2178","KB","Arbuckle"
"1040862714","15-163-00231-0001","Ouderkirk","1","H & B Petroleum Corp.","H & B Petroleum Corp.","Marcotte","10","S","19","W","7"," "," ","SE","SE","NW","-2310","2235","NW","-99.48539","39.1987356","Rooks","11/04/2005","11/23/2005","02/24/2006","","OIL","Producing","3804","2223","KB","Arbuckle"
"1001290413","15-163-02193","Ouderkirk","4","Midstates Oil Corp.","Bowman Oil Company, a General Partnership","Marcotte","10","S","20","W","25"," "," ","NW","SW","SW","990","-4950","SE","-99.5106713","39.1497542","Rooks","","09/29/1950","10/25/1950","","OIL","Producing","3735","2167","KB"," "
"1006124453","15-163-20653","Sutor 'B'","2","Chippewa Petroleum","Anderson Energy, Inc.","Marcotte","10","S","20","W","25"," ","NW","SE","NW","NE","4296","-1756","SE","-99.4994633","39.1588433","Rooks","11/01/1976","10/28/1976","11/24/1976","08/26/1992","OIL-P&A","Plugged and Abandoned","3768","2191","KB"," "
"1006129367","15-163-23266","STEEPLES","1","VENTURE RESOURCES, INC.","Venture Resources, Inc.","Marcotte","9","S","20","W","25"," "," ","NW","NW","SW","2310","110","SW","-99.5116948","39.2408489","Rooks","07/25/1995","07/31/1995","08/06/1995","08/06/1995","D&A","Plugged and Abandoned","3800","2198","KB"," "
"1002941427","15-163-00403","STEEPLES","1","BARNETT DRILLING CO.","","Marcotte","9","S","20","W","36"," "," ","SW","SW","NE","2970","-2310","SE","-99.5015035","39.227806","Rooks","","07/14/1951","07/28/1951","07/28/1951","D&A","Plugged and Abandoned","3915","2245","KB"," "
"1006125608","15-163-21235","NUTSCH","1","COLLINS JOHN B","","Marcotte","10","S","20","W","3"," "," ","NW","NE","SE","2310","-990","SE","-99.5341613","39.211602","Rooks","01/23/1981","02/04/1981","02/11/1981","02/11/1981","D&A","Plugged and Abandoned","3852","2266","KB"," "
"1002941306","15-163-00284","HENDERSON","1","HEATHMAN DRILLING CO. INC","","Marcotte","10","S","19","W","8"," "," ","SW","SW","SE","330","-2310","SE","-99.4642888","39.1916697","Rooks","","03/02/1950","03/13/1950","03/13/1950","D&A","Plugged and Abandoned","3848","2210","KB"," "
"1001289956","15-163-01999","WILSON 'B'","7","FRANCIS OIL & GAS CO","Paul Bowman Oil","Marcotte","10","S","20","W","1"," "," ","NW","NE","NW","4950","-3630","SE","-99.5062146","39.2187138","Rooks","","09/04/1953","09/14/1953","08/15/1995","OIL-P&A","Plugged and Abandoned","3791","2257","KB"," "
"1001289974","15-163-02003","SUTOR 'A'","11","CHAMPLIN OIL & REFINING CO","RME Petroleum Company","Marcotte","10","S","20","W","1"," "," ","SE","NE","SW","1650","-2970","SE","-99.5038088","39.2096285","Rooks","05/07/1964","05/08/1964","05/17/1964","04/29/1988","OIL-P&A","Plugged and Abandoned","3774","2235","KB"," "
"1001289748","15-163-01900","Dick","1","Sohio Petroleum Co.","","Marcotte","10","S","19","W","7"," "," ","NW","NW","SE","2310","-2310","SE","-99.4829276","39.1969068","Rooks","","05/31/1949","06/12/1949","11/10/1981","OIL-P&A","Plugged and Abandoned","3765","2213","KB"," "
"1002941182","15-163-00171","Earl Sutor","1","Skelly Oil Co.","","Marcotte","10","S","20","W","13"," "," ","NE","NE","SW","2310","-2970","SE","-99.5037591","39.1824475","Rooks","","03/17/1949","03/30/1949","03/30/1949","D&A","Plugged and Abandoned","3842","2210","DF"," "
"1001290211","15-163-03534","SUTOR 'A'","5-X TWIN","SOHIO PETROLEUM CO","","Marcotte","10","S","20","W","13"," "," ","NE","NE","SE","2310","-330","SE","-99.4944438","39.1823106","Rooks","","08/24/1950","09/06/1950","09/20/1978","OIL-P&A","Plugged and Abandoned","3759","2222","KB"," "
"1001290224","15-163-03326","EARL SUTOR","10","CHAMPLIN OIL & REFINING","","Marcotte","10","S","20","W","13"," ","NW","NE","SW","NE","-1570","-1735","NE","-99.4993987","39.1862032","Rooks","","04/20/1951","05/09/1951","10/01/1982","SWD","Recompleted","4190","2202","KB"," "
"1001290231","15-163-03529","Sutor 'A'","1","Sohio Petroleum Co.","","Marcotte","10","S","20","W","13"," "," ","SE","SE","SE","330","-330","SE","-99.4944495","39.1768725","Rooks","","05/20/1949","05/30/1949","09/20/1978","OIL-P&A","Plugged and Abandoned","3761","2215","KB"," "
"1001290214","15-163-03297","SUTOR 'A'","9","SOHIO PETROLEUM CO","","Marcotte","10","S","20","W","13"," "," ","NE","SE","SE","990","-330","SE","-99.4944476","39.1786852","Rooks","","08/14/1951","09/05/1951","09/30/1978","OIL-P&A","Plugged and Abandoned","3758","2221","KB"," "
"1001290210","15-163-03532","Sutor 'A'","5","Sohio Petroleum Co.","","Marcotte","10","S","20","W","13"," "," ","NE","NE","SE","2310","-330","SE","-99.4944438","39.1823106","Rooks","","10/26/1949","11/23/1949","09/20/1978","OIL-P&A","Plugged and Abandoned","3763","2222","KB"," "
"1029101546","15-163-30112-0001","Atherton","2","Don E. Pratt","Ritchie Exploration, Inc.","Marcotte","10","S","19","W","7"," "," "," ","NE","SW","1980","-3300","SE","-99.4864196","39.1959659","Rooks","","","","03/05/1991","SWD-P&A","Plugged and Abandoned","1600","2224","KB"," "
"1001289727","15-163-01913","Ouderkirk","10","Nadel and Gussman LLC","Nadel and Gussman","Marcotte","10","S","19","W","7"," "," ","SW","SE","NW","2970","-3630","SE","-99.4875899","39.1986735","Rooks","","11/14/1951","11/28/1951","11/03/1982","OIL-P&A","Plugged and Abandoned","3767","2224","KB"," "
"1001289737","15-163-03369","Atherton","3","C-G Drilling Co.","","Marcotte","10","S","19","W","7"," "," ","SW","NE","SW","1650","-3630","SE","-99.4875824","39.1950481","Rooks","","07/16/1949","07/28/1949","04/28/1961","OIL-P&A","Plugged and Abandoned","3767","2227","DF"," "
"1001289725","15-163-01908","Ouderkirk","3","Nadel and Gussman LLC","","Marcotte","10","S","19","W","7"," "," ","NW","SE","NW","3630","-3630","SE","-99.4875936","39.2004862","Rooks","","06/22/1949","07/03/1949","10/02/1991","OIL-P&A","Plugged and Abandoned","3774","2228","KB"," "
"1001289740","15-163-01907","Ouderkirk","2","Nadel and Gussman LLC","Nadel and Gussman","Marcotte","10","S","19","W","7"," "," ","SW","SW","NE","2970","-2310","SE","-99.4829313","39.1987195","Rooks","","06/06/1949","06/20/1949","11/03/1982","OIL-P&A","Plugged and Abandoned","3782","2224","DF"," "
"1001289733","15-163-03372","Dunlap","3","C-G Drilling Co.","","Marcotte","10","S","19","W","7"," "," ","SW","SW","SW","330","-4950","SE","-99.4922335","39.1913766","Rooks","","05/10/1950","05/21/1950","03/18/1957","OIL-P&A","Plugged and Abandoned","3772","2231","KB"," "
"1041033721","15-163-01905-0001","Dick","6","Sohio Petroleum Co.","","Marcotte","10","S","19","W","7"," "," ","SE","NW","SE","1650","-1650","SE","-99.4805946","39.1951172","Rooks","","","","","EOR","Converted to Producing Well","3793","2214","KB"," "
"1001289724","15-163-01909","Ouderkirk","4","Nadel and Gussman LLC","Nadel and Gussman","Marcotte","10","S","19","W","7"," ","W2","SE","NE","NW","4260","-3101","SE","-99.4857302","39.2022349","Rooks","","07/05/1949","07/18/1949","09/21/1994","OIL-P&A","Plugged and Abandoned","3770","2330","KB"," "
"1002941248","15-163-00231","Ouderkirk","1","Nadel and Gussman LLC","Nadel and Gussman","Marcotte","10","S","19","W","7"," "," ","SE","SE","NW","2970","-3045","SE","-99.4855253","39.1986939","Rooks","","04/15/1949","04/28/1949","10/10/1995","OIL-P&A","Plugged and Abandoned","3804","2226","KB"," "
"1001289730","15-163-03371","Dunlap","2","C-G Drilling Co.","","Marcotte","10","S","19","W","7"," "," ","SE","NW","SW","1650","-4290","SE","-99.4899117","39.195025","Rooks","","07/02/1949","07/15/1949","09/14/1952","OIL-P&A","Plugged and Abandoned","3809","2236","KB"," "
"1001289736","15-163-03370","Atherton","4","C-G Drilling Co.","","Marcotte","10","S","19","W","7"," "," ","NE","SE","SW","990","-2970","SE","-99.4852494","39.1932584","Rooks","","08/09/1949","09/22/1949","04/23/1961","OIL-P&A","Plugged and Abandoned","3790","2233","KB"," "
"1001289738","15-163-03368","Atherton","2","C-G Drilling Co.","","Marcotte","10","S","19","W","7"," "," ","SW","SE","SW","330","-3630","SE","-99.4875749","39.1914227","Rooks","","06/18/1949","06/30/1949","04/20/1961","OIL-P&A","Plugged and Abandoned","3769","2231","DF"," "
"1001289739","15-163-03367","Atherton","1","C-G Drilling Co.","","Marcotte","10","S","19","W","7"," "," ","NE","NE","SW","2310","-2970","SE","-99.4852569","39.1968838","Rooks","","05/29/1949","06/11/1949","04/25/1961","OIL-P&A","Plugged and Abandoned","3754","2220","DF"," "
"1001289741","15-163-02552","Ouderkirk","11","Nadel and Gussman LLC","","Marcotte","10","S","19","W","7"," "," ","NE","SE","NW","3630","-2970","SE","-99.4852643","39.2005092","Rooks","","07/26/1952","08/06/1952","08/06/1952","D&A","Plugged and Abandoned","3855","2230","KB"," "
"1001289729","15-163-02698","Ouderkirk","5","Nadel and Gussman LLC","","Marcotte","10","S","19","W","7"," "," ","SW","NW","NE","4290","-2310","SE","-99.4829388","39.2023449","Rooks","","07/18/1949","07/29/1949","07/29/1949","D&A","Plugged and Abandoned","3847","2225","DF"," "
"1006124583","15-163-20718","DICK","1","RESOURCES INVESTMENT CORP.","Paul Bowman Oil Trust","Marcotte","10","S","19","W","8"," "," ","SW","SE","SW","330","-3630","SE","-99.4689472","39.1916162","Rooks","06/22/1977","08/24/1977","10/06/1977","","OIL","Producing","3756","2188","KB","Arbuckle"
"1002942086","15-163-01023","BARTOS","1","MURFIN DRILLING CO","","Marcotte","10","S","19","W","8"," "," ","SE","SE","NE","2970","-330","SE","-99.4573473","39.1990003","Rooks","04/05/1957","04/10/1957","04/21/1957","04/21/1957","D&A","Plugged and Abandoned","3801","2208","KB"," "
"1006124673","15-163-20765","DICK","2","RESOURCES INVESTMENT CORP.","","Marcotte","10","S","19","W","8"," "," ","SE","SW","SW","330","-4290","SE","-99.4712764","39.1915894","Rooks","12/16/1977","12/17/1977","12/23/1977","12/23/1977","D&A","Plugged and Abandoned","3825","2199","KB"," "
"1002941324","15-163-00301","Ouderkirk","8","Nadel and Gussman LLC","Nadel and Gussman","Marcotte","10","S","19","W","7"," "," ","SW","SW","NW","2970","-4950","SE","-99.4922485","39.1986274","Rooks","","02/09/1951","02/20/1951","11/03/1982","OIL-P&A","Plugged and Abandoned","3807","2230","DF"," "
"1032691789","15-163-19093","SUTOR 'A'","13","CHAMPLIN PETROLEUM COMPANY","","Marcotte","10","S","20","W","1"," "," ","NW","SW","SW","990","-4950","SE","-99.5107836","39.2078786","Rooks","05/29/1964","05/30/1964","06/08/1964","02/11/1982","SWD-P&A","Plugged and Abandoned","4037","2227","KB"," "
"1001289978","15-163-03068","MARCOTTE 'A'","1","EL DORADO REFINING CO","","Marcotte","10","S","20","W","2"," "," ","NW","SE","NW","3630","-3630","SE","-99.5248666","39.2151925","Rooks","","06/23/1954","07/04/1954","07/04/1954","D&A","Plugged and Abandoned","3852","2251","DF"," "
"1002941856","15-163-00804","G. STEEPLES","1","DAVIS BROS DRLG & EXPL","","Marcotte","9","S","20","W","25"," "," ","SE","NW","SE","1650","-1650","SE","-99.4990929","39.2387804","Rooks","","03/16/1961","03/27/1961","03/31/1961","D&A","Plugged and Abandoned","3791","2222","KB"," "
"1002941142","15-163-00133","MILLER","1","OKMAR OIL CO","Okmar Oil Company","Marcotte","10","S","20","W","5"," ","NW","SW","SW","NE","3054","-2493","SE","-99.5767694","39.213628","Rooks","","08/02/1948","08/14/1948","","OIL","Converted to SWD Well","3832","2235","KB"," "
"1001290212","15-163-03533","Sutor 'A'","6","Sohio Petroleum Co.","Dalen Resources Oil and Gas Co.","Marcotte","10","S","20","W","13"," "," ","SE","NW","SE","1650","-1650","SE","-99.4991033","39.1805664","Rooks","","12/18/1949","01/16/1950","05/14/1991","OIL-P&A","Plugged and Abandoned","3759","2209","KB"," "
"1001289712","15-163-03221","PYWELL 'A'","1","NADEL & GUSSMAN","Nadel and Gussman","Marcotte","10","S","19","W","6"," "," ","NE","NW","SW","2310","-4290","SE","-99.489949","39.2113796","Rooks","05/21/1957","05/24/1957","06/03/1957","10/02/1985","OIL-P&A","Plugged and Abandoned","3790","2234","KB"," "
"1001289753","15-163-02526","RUSSELL DICK","2","MAGNOLIA PETROLEUM CO","","Marcotte","10","S","19","W","8"," "," ","SW","NW","SW","1650","-4950","SE","-99.4736285","39.1951879","Rooks","","08/28/1951","09/09/1951","09/10/1951","D&A","Plugged and Abandoned","3872","2211","KB"," "
"1001289828","15-163-01955","Lillian Scoggins","6","Skelly Oil Co.","","Marcotte","10","S","19","W","18"," "," ","SW","NE","SW","1650","-3630","SE","-99.487496","39.1805567","Rooks","","05/29/1949","06/11/1949","10/18/1989","OIL-P&A","Converted to EOR Well","3797","2236","DF"," "
"1001289827","15-163-01954","Lillian Scoggins","5","Skelly Oil Co.","","Marcotte","10","S","19","W","18"," "," ","SW","NW","SW","1650","-4950","SE","-99.4921533","39.1804957","Rooks","","05/29/1949","06/23/1949","05/15/1973","OIL-P&A","Plugged and Abandoned","3777","2231","DF"," "
"1045038320","15-163-24300","Rogers","5","Raney Oil Company, LLC","Bach Oil Production","Marcotte","10","S","20","W","23"," ","NE","SW","SE","NW","3060","-3330","SE","-99.5237795","39.1701095","Rooks","06/22/2015","07/06/2015","07/12/2015","","SWD","Authorized Injection Well","4113","2234","KB","Arbuckle"
"1038220836","15-163-02043-0001","TOMCAT","1-10","Vess Oil Corp.","Vess Oil Corporation","Marcotte","10","S","20","W","10"," "," ","SW","NW","SE","1650","-2310","SE","-99.5388029","39.1951914","Rooks","","12/07/1996","12/10/1996","","OIL","Producing","3808","2246","KB","Arbuckle"
"1044035033","15-163-23996","Couture","2","Mustang Energy Corp.","Mustang Energy Corporation","Marcotte","10","S","20","W","10"," ","W2","SW","SE","SW","330","1460","SW","-99.5442047","39.1915969","Rooks","12/08/2011","01/03/2012","01/09/2012","","OIL","Producing","3762","2211","KB","Arbuckle"
