KID,API,LEASE_NAME,WELL_NAME,ORIG_OPERATOR,CURR_OPERATOR,FIELD_NAME,TOWNSHIP,TOWNSHIP_DIR,RANGE,RANGE_DIR,SECTION,SPOT,SUBDIVISION_4_SMALLEST,SUBDIVISION_3,SUBDIVISION_2,SUBDIVISION_1_LARGEST,FEET_NORTH,FEET_EAST,REFERENCE_CORNER,NAD27_LONGITUDE,NAD27_LATITUDE,COUNTY,PERMIT_DATE,SPUD_DATE,COMPLETION_DATE,PLUG_DATE,WELL_TYPE,STATUS,TOTAL_DEPTH,ELEVATION,ELEVATION_REFERENCE,PRODUCING_FORMATION
"1006061078","15-065-21786","Buss","1","Raymond Oil Co., Inc.","MEM Partnership LP, a General Partnership","Morel","9","S","22","W","12"," "," ","SW","NE","NE","-990","-990","NE","-99.7195601","39.2896566","Graham","03/29/1983","04/14/1983","04/24/1983","02/27/2012","OIL-P&A","Plugged and Abandoned","3786","2218","KB","Arbuckle"
"1001227245","15-065-20663","A. DESBIAN","1","CONTINENTAL OIL CO","","Morel","9","S","21","W","3"," "," ","SE","NE","SW","1650","-2970","SE","-99.6524429","39.2971006","Graham","03/15/1974","","","","LOC","Expired Intent to Drill (C-1)","","",""," "
"1001229236","15-065-22666","BRAULT","1","CASTLE RESOURCES","N-B Company, Inc.","Morel","9","S","21","W","13"," "," ","NE","NW","SW","2210","-4490","SE","-99.6207808","39.2697508","Graham","02/26/1992","","08/10/1992","","LOC","Expired Intent to Drill (C-1)","","2175","GL"," "
"1001230994","15-065-01535","MILLS","5","C-G DRILLING CO. & R.A. COOK","Vess Oil Corporation","Morel","9","S","22","W","24"," "," ","NW","SW","NE","3630","-2310","SE","-99.7243054","39.2587898","Graham","01/10/1959","01/12/1959","01/22/1959","","OIL","Converted to EOR Well","3892","2351","KB"," "
"1001230520","15-065-01368","ROSA BALTHAZOR","1","Gulf Oil Corp.","Lloyd Drilling Company","Morel","9","S","21","W","14"," "," ","SE","SW","NE","2970","-1650","SE","-99.6295867","39.2717801","Graham","","07/27/1944","08/19/1944","01/03/1994","OIL-P&A","Plugged and Abandoned","3740","2208","DF"," "
"1031002648","15-065-19016-0001","DAVIGNON","2","F & J OIL CO.","Meridian Energy Inc.","Morel","9","S","21","W","20"," "," ","NW","NE","NW","4950","-3630","SE","-99.6924647","39.2624247","Graham","04/04/1977","05/01/1977","05/02/1977","","SWD","Recompleted","4200","2316","KB"," "
"1001230758","15-065-02558","Putnam Investment Co. 'A'","7","Continental Oil Co.","","Morel","9","S","21","W","23"," "," ","NE","NW","NW","4950","-4620","SE","-99.6400887","39.2626372","Graham","","07/28/1948","08/08/1948","08/11/1948","D&A","Plugged and Abandoned","3847","2281","DF"," "
"1006059416","15-065-20857","VESPER","1","BARNETT OIL, INC.","","Morel","9","S","22","W","12"," "," ","NE","NE","NW","-330","-2970","NE","-99.7265598","39.2914123","Graham","08/17/1976","09/02/1976","09/07/1976","09/07/1976","D&A","Plugged and Abandoned","3545","2222","KB"," "
"1006059666","15-065-20994","BALTHAZOR","6","COLLINS JOHN B","","Morel","9","S","21","W","13"," "," ","NE","NW","SE","2310","-1650","SE","-99.6107436","39.2701067","Graham","01/13/1978","01/12/1978","01/19/1978","01/19/1978","D&A","Plugged and Abandoned","3742","2208","KB"," "
"1006061734","15-065-22159","Cooley 'B'","16","American Petrofina Co. of Texas","National Cooperative Refinery Assoc.","Morel","9","S","21","W","17"," "," ","SE","NW","NE","4290","-1650","SE","-99.6853262","39.2751399","Graham","03/14/1985","03/25/1985","04/27/1985","","OIL","Recompleted","3742","2254","KB","Arbuckle"
"1001230507","15-065-01384","M. KNIPP","9","SHELL OIL CO.","Benchmark Oil & Gas Corporation","Morel","9","S","21","W","14"," ","E2","SW","SW","SE","330","-2254","SE","-99.631713","39.264517","Graham","09/16/1963","09/16/1963","10/16/1963","","OIL","Converted to EOR Well","3777","2266","KB"," "
"1001230530","15-065-01374","Hinkhouse","1","Bridgeport Oil Co.","Pacific Enterprises Oil Co., USA","Morel","9","S","21","W","14"," "," ","SE","SE","NW","2970","2310","SW","-99.6339147","39.2717549","Graham","","07/03/1944","08/04/1944","06/28/1982","OIL-P&A","Plugged and Abandoned","3709","2229","KB"," "
"1001230548","15-065-03378","Trexler, O. E.","1","Continental Oil Co.","Phillips Petroleum Co.","Morel","9","S","21","W","15"," "," ","E2","W2","NE","3960","-1650","SE","-99.6478854","39.2744076","Graham","","03/18/1939","04/17/1939","12/05/1991","OIL-P&A","Plugged and Abandoned","3721","2230","DF"," "
"1001230590","15-065-01394","Andreson 'A'","8","Barnett Drilling Co.","FourWinds Oil Corporation","Morel","9","S","21","W","16"," "," ","SE","SW","SW","330","660","SW","-99.6773128","39.2642888","Graham","","05/02/1949","05/17/1949","","OIL","Producing","3803","2291","DF"," "
"1001230646","15-065-01436","SUTOR 'B'","3","Peel-Hardman Oil Producers","Okmar Oil Company","Morel","9","S","21","W","18"," "," ","SE","NE","SE","1650","-330","SE","-99.6994792","39.2678707","Graham","","03/18/1950","03/28/1950","05/09/1990","OIL-P&A","Plugged and Abandoned","3800","2284","KB"," "
"1032576810","15-065-03472","Cooley 'B'","11","Palmer Oil Corp. and Natl. Coop. Refinery Assoc.","Manuel Corporation","Morel","9","S","21","W","17"," "," ","W2","SE","NE","3300","-990","SE","-99.6830315","39.2724247","Graham","","11/26/1951","12/17/1951","","OIL","Recompleted","3742","2239","KB"," "
"1044194701","15-065-02931-0001","Lewis 'B'","2","Meridian Energy Inc.","Thunder Oil & Gas, LLC","Morel","9","S","21","W","23"," "," ","SE","SW","SW","330","990","SW","-99.6386101","39.2499396","Graham","11/14/2012","11/27/2012","01/25/2013","","OIL","Producing","3825","2305","KB","Arbuckle"
"1037024664","15-065-19133","Cooley 'B'","2","Petro-Atlas Corp.","BEREXCO LLC","Morel","9","S","21","W","17"," "," ","SW","NE","NW","4090","-3630","SE","-99.6923289","39.274579","Graham","02/05/1958","02/03/1958","02/18/1958","","SWD","Recompleted","4287","2302","KB"," "
"1036916914","15-065-19131","J. Morel","1","Continental Oil Co.","","Morel","9","S","21","W","15"," "," ","NW","NE","SE","2310","-990","SE","-99.6455869","39.2698833","Graham","","09/11/1942","10/02/1942","11/11/1976","OIL-P&A","Plugged and Abandoned","3756","2253","DF"," "
"1036916917","15-065-02892-0001","J. Morel","6","Continental Oil Co.","Noble Energy, Inc.","Morel","9","S","21","W","15"," "," ","SE","NW","SE","1650","-1650","SE","-99.647932","39.2680631","Graham","","","04/13/1962","07/28/2010","OIL-P&A","Plugged and Abandoned","3722","2249","KB"," "
"1044019775","15-065-23786","EICHMAN","16","Dane G. Hansen Trust","Hansen, Dane G. - Trust","Morel","9","S","21","W","13"," ","N2","SW","NW","NE","-929","-2205","NE","-99.6126471","39.2757477","Graham","11/08/2011","11/12/2011","11/17/2011","11/17/2011","D&A","Plugged and Abandoned","3700","2156","KB"," "
"1033763821","15-065-23116","CLACK","5","Elysium Energy, L.L.C.","Citation Oil & Gas Corp.","Morel","9","S","21","W","10"," ","NW","SW","SE","SW","383","1630","SW","-99.6551364","39.2791748","Graham","11/29/2005","","","","OIL","Producing","3748","2160","GL","Arbuckle, Lansing Kansas City"
"1036120248","15-065-01534","MILLS","4","C-G DRILLING CO. & R.A. COOK","Vess Oil Corporation","Morel","9","S","22","W","24"," "," ","NE","SW","NE","3630","-1650","SE","-99.7219742","39.2587955","Graham","10/04/1958","10/06/1958","11/18/1958","","OIL","Recompleted","3881","2345","KB"," "
"1033973045","15-065-23144","Trexler","19","Elysium Energy, LLC","Citation Oil & Gas Corp.","Morel","9","S","21","W","15"," ","NE","SE","NW","NE","-980","-1636","NE","-99.6478285","39.2754103","Graham","02/10/2006","02/23/2006","03/20/2006","","OIL","Producing","3770","2220","KB","Arbuckle, Lansing Kansas City"
"1036040715","15-065-23227","Balthazor","1-14","Downing-Nelson Oil Co. Inc.","Downing-Nelson Oil Co Inc","Morel","9","S","21","W","14"," ","NE","NW","SE","NE","-1402","-664","NE","-99.6261063","39.2743206","Graham","09/18/2006","09/30/2006","10/07/2006","","OIL","Producing","3744","2207","KB","Kansas City"
"1025813754","15-065-22844","TREXLER, O. E.","18","Elysium Energy, L.L.C.","Noble Energy, Inc.","Morel","9","S","21","W","15"," "," ","SW","NW","NE","4290","-2310","SE","-99.6502104","39.2753065","Graham","06/24/2002","07/31/2002","08/21/2002","","OIL","Recompleted","3717","2221","KB","Arbuckle, Lansing Kansas City"
"1002915142","15-065-01534-0001","MILLS","4","Vess Oil Corporation","Vess Oil Corporation","Morel","9","S","22","W","24"," "," ","NE","SW","NE","3630","-1650","SE","-99.7219742","39.2587955","Graham","","09/19/1997","09/20/1997","","OIL","Producing","3881","2345","KB","Lansing Kansas City"
"1037987590","15-065-01428-0001","SEEFELD","2","MERIDAN ENERGY","Meridian Energy Inc.","Morel","9","S","21","W","18"," "," ","NW","SE","NE","3630","-990","SE","-99.7018053","39.2733147","Graham","04/03/2008","06/06/2008","07/14/2008","","OIL","Producing","3809","2277","GL","Arbuckle"
"1040658731","15-065-01449-0001","Davignon","4","Meridian Energy Inc.","Gore Oil Company","Morel","9","S","21","W","20"," ","SE","SE","NE","NW","4290","-2970","SE","-99.6901069","39.2606139","Graham","","09/16/2008","09/19/2008","","OIL","Producing","3829","2294","KB","Arbuckle"
"1036040711","15-065-23225","BUSS 'C'","7","Bowman Oil Company, a General Partnership","Paul Bowman Oil Trust","Morel","9","S","22","W","13"," "," ","SW","SE","NE","2970","-990","SE","-99.7195935","39.2715249","Graham","09/11/2006","","09/25/2006","","OIL","Producing","3776","2400","GL","Arbuckle"
"1036875643","15-065-23269-0001","Thompson","1","Spiral Energy Corp.","Gore Oil Company","Morel","9","S","21","W","7"," "," ","NE","NE","NE","4963","-309","SE","-99.6993165","39.291593","Graham","","","","","SWD","Authorized Injection Well","3900","2266","KB"," "
"1036879358","15-065-20994-0001","BALTHAZOR","6","MONSANTO","","Morel","9","S","21","W","13"," "," ","NE","NW","SE","2310","-1650","SE","-99.6107436","39.2701067","Graham","07/31/1984","01/12/1978","12/20/1984","","LOC","Expired Intent to Drill (C-1)","3742","2208","KB"," "
"1036879366","15-065-19127","BRAULT","2","HARBAR DRILLING CO.","","Morel","9","S","21","W","13"," "," ","W2","SW","SW","330","-4620","SE","-99.621294","39.2645832","Graham","","09/09/1948","09/23/1948","10/23/1948","D&A","Plugged and Abandoned","3775","2204","KB"," "
"1036916518","15-065-03377-0001","Trexler, O. E.","3","Conoco, Inc.","Citation Oil & Gas Corp.","Morel","9","S","21","W","15"," ","NE","NW","SE","NW","3657","-3739","SE","-99.6549747","39.2736021","Graham","","09/08/1981","01/04/1982","","SWD","Authorized Injection Well","4154","2202","DF"," "
"1036916505","15-065-02899-0001","BOLAND","3","FourWinds Oil Corporation","FourWinds Oil Corporation","Morel","9","S","21","W","16"," "," ","NE","SW","NE","3726","-1731","SE","-99.6668558","39.2737424","Graham","","","04/23/1974","","SWD","Authorized Injection Well","4190","2181","DF"," "
"1001230933","15-065-01520","BUSS 'D'","1","Anderson Prichard Oil Corp.","Paul Bowman Oil","Morel","9","S","22","W","13"," "," ","NE","NE","SE","2310","-330","SE","-99.7172751","39.2697217","Graham","","08/01/1951","08/12/1951","02/22/2001","OIL-P&A","Plugged and Abandoned","3797","2284","KB","Arbuckle Group"
"1036762802","15-065-20035","BRAULT","3","SINCLAIR OIL & GAS CO.","BEREXCO LLC","Morel","9","S","21","W","13"," ","NW","NW","SW","SW","1030","-5167","SE","-99.6232063","39.2665123","Graham","04/24/1967","04/28/1967","05/09/1967","","SWD","Authorized Injection Well","4240","2208","KB"," "
"1037027245","15-065-19139","COX 'C'","5","B & R DRILLING COMPANY INC","","Morel","9","S","21","W","26"," "," ","SE","SE","NW","2970","-2970","SE","-99.634402","39.2425844","Graham","","05/14/1950","05/26/1950","","OIL","Converted to SWD Well","3828","2292","KB"," "
"1037649314","15-065-23398","Buss 'C'","8","Paul Bowman Oil Trust","Paul Bowman Oil Trust","Morel","9","S","22","W","13"," "," ","NE","NW","NE","-525","-1640","NE","-99.7218552","39.2763995","Graham","01/08/2008","01/28/2008","02/12/2008","","OIL","Producing","3780","2241","KB","Arbuckle"
"1037034753","15-065-01535-0001","MILLS","5","Vess Oil Corporation","Vess Oil Corporation","Morel","9","S","22","W","24"," "," ","NW","SW","NE","3587","-2282","SE","-99.7237612","39.2587005","Graham","","","12/23/1997","","EOR","Authorized Injection Well","3892","",""," "
"1037041345","15-065-01427-0001","SEEFELD","1","MERIDIAN OIL CO","Meridian Energy Inc.","Morel","9","S","21","W","18"," "," ","SE","SE","NE","2970","-330","SE","-99.6994755","39.271496","Graham","08/10/2007","11/26/2007","01/02/2008","","OIL","Producing","4200","2296","KB","Arbuckle"
"1036876404","15-065-00944-0001","Shaw","2","Natl. Coop. Refinery Assoc.","Wildhorse Oil","Morel","9","S","21","W","7"," "," ","E2","NW","NW","4620","-4290","SE","-99.713396","39.2906035","Graham","","","04/24/1969","12/20/1994","EOR-P&A","Plugged and Abandoned","3856","2276","KB"," "
"1037031185","15-065-23316","Balthazor","2-14","Downing-Nelson Oil Co. Inc.","Downing-Nelson Oil Co Inc","Morel","9","S","21","W","14"," ","E2","SW","SW","NE","-2310","-2259","NE","-99.6317399","39.2717984","Graham","07/06/2007","07/07/2007","07/13/2007","","OIL","Producing","3778","2199","KB","Arbuckle, Kansas City"
"1028139999","15-065-22262-0002","Cooley 'A'","13","Berexco LLC","BEREXCO LLC","Morel","9","S","21","W","17"," "," ","NW","SE","SW","990","-3630","SE","-99.692394","39.2661527","Graham","","","02/02/1994","","EOR","Converted to Producing Well","3805","2300","KB"," "
"1028140002","15-065-03473-0001","Cooley 'B'","12","Palmer Oil Corp. and Natl. Coop. Refinery Assoc.","Manuel Corporation","Morel","9","S","21","W","17"," "," ","NE","NW","NE","4950","-1650","SE","-99.6853016","39.2769526","Graham","","","12/28/1957","10/20/1999","SWD-P&A","Plugged and Abandoned","4180","2245","KB"," "
"1028140011","15-065-21987-0001","Cooley 'B'","14","Natl. Coop. Refinery Assoc.","National Cooperative Refinery Assoc.","Morel","9","S","21","W","17"," "," ","SE","SE","NW","2864","-3076","SE","-99.6904174","39.271215","Graham","","04/24/1990","05/01/1990","","OIL","Recompleted","3764","2272","KB","Lansing-Kansas City"
"1027629609","15-065-01409-0001","Trexler, O. E.","7","Elysium Energy, LLC","Noble Energy, Inc.","Morel","9","S","21","W","15"," "," ","SE","SE","NW","2970","-2970","SE","-99.6525689","39.2716736","Graham","","09/25/2002","10/14/2002","01/30/2009","OIL-P&A","Plugged and Abandoned","3703","2223","DF","Arbuckle, Lansing-Kansas City"
"1028139987","15-065-22161-0001","Cooley 'A'","12","Natl. Coop. Refinery Assoc.","BEREXCO LLC","Morel","9","S","21","W","17"," "," ","NW","NE","SW","2310","-3630","SE","-99.6923953","39.2696902","Graham","","03/14/1990","03/21/1990","","OIL","Producing","3787","2298","KB","Lansing-Kansas City"
"1037027247","15-065-01481-0002","Balthazor","3","Mobil Oil Corp.","","Morel","9","S","21","W","23"," "," ","NW","SE","NE","3630","-990","SE","-99.6273437","39.2589363","Graham","","07/20/1963","07/20/1963","","OIL","Converted to EOR Well","3628","2257","KB"," "
"1001230665","15-065-03393","PRICER","1","PEEL-HARDMAN OIL PRODUCERS & R.W. SHIELDS","","Morel","9","S","21","W","19"," "," ","NE","NW","NW","4950","-4290","SE","-99.7134651","39.2624328","Graham","","02/19/1951","03/01/1951","10/22/1956","OIL-P&A","Plugged and Abandoned","3857","2322","KB"," "
"1035940995","15-065-23211","TREXLER","21","Elysium Energy, L.L.C.","Citation Oil & Gas Corp.","Morel","9","S","21","W","15"," ","NW","SW","SE","NW","-2310","1433","NW","-99.6559491","39.2717781","Graham","08/01/2006","","","","OIL","Producing","3793","2225","GL"," "
"1028008104","15-065-02891-0001","A. Morel","1","Continental Oil Co.","","Morel","9","S","21","W","15"," "," ","W2","E2","NE","3960","-900","SE","-99.6452356","39.2744161","Graham","","","04/15/1962","","OTHER","Recompleted","","","","Arbuckle, Lansing-Kansas City"
"1027629607","15-065-01407-0001","Trexler, O. E.","4","Elysium Energy, LLC","Citation Oil & Gas Corp.","Morel","9","S","21","W","15"," ","SW","SE","NE","NW","-1004","-2970","NE","-99.6527785","39.2753587","Graham","","09/18/2002","09/23/2002","","OIL","Producing","3675","2190","DF","Arbuckle, Lansing-Kansas City"
"1002914088","15-065-00170","VAN LOENEN","1","PEEL-HARDMAN OIL PRODUCERS, R.W. SHIELDS, N. APPLEMAN","","Morel","9","S","21","W","19"," "," ","NE","NE","SW","2310","-2970","SE","-99.7087572","39.2551782","Graham","","04/23/1950","05/03/1950","05/03/1950","D&A","Plugged and Abandoned","3980","2360","KB"," "
"1001230675","15-065-02531","PRICER","4","CITIES SERVICE CO","","Morel","9","S","21","W","19"," "," ","NE","SW","NW","3630","-4290","SE","-99.7134424","39.2588074","Graham","08/24/1959","08/30/1959","09/13/1959","09/13/1959","D&A","Plugged and Abandoned","3965","2321","KB"," "
"1028444389","15-065-01411-0002","Trexler, O. E.","9","Elysium Energy, LLC","Citation Oil & Gas Corp.","Morel","9","S","21","W","15"," ","NW","SW","SW","NE","-2298","-2338","NE","-99.6503352","39.2717961","Graham","","01/06/2003","01/29/2003","09/03/2021","OIL-P&A","Plugged and Abandoned","3686","2209","DF","Lansing-Kansas City"
"1028444395","15-065-22845-0001","J. Morel","7","Elysium Energy, LLC","Elysium Energy, L.L.C.","Morel","9","S","21","W","15"," "," ","SW","NW","SE","1650","-2310","SE","-99.6502638","39.2680556","Graham","","01/24/2003","02/17/2003","","OIL","Recompleted","3748","2227","KB","Arbuckle"
"1001230635","15-065-01419","FORGY","6","BARNETT DRILLING INC","","Morel","9","S","21","W","18","C"," ","SW","NW","NW","4290","-4950","SE","-99.7157935","39.2751634","Graham","","10/20/1951","10/31/1951","03/01/1972","SWD-P&A","Converted to SWD Well","3821","2288","KB"," "
"1001230770","15-065-02383","LOE","1","GLICKMAN OIL CO","","Morel","9","S","21","W","24","C"," ","SE","SW","NE","2970","-1650","SE","-99.6109176","39.2572743","Graham","12/16/1963","12/18/1963","12/29/1963","12/29/1963","D&A","Plugged and Abandoned","3802","2251","KB"," "
"1001230759","15-065-02561","BALTHAZOR","2","BARNETT DRILLING, INC. ET AL","","Morel","9","S","21","W","24","C"," ","NW","NE","NW","4950","-3630","SE","-99.6178217","39.2626229","Graham","","08/19/1951","08/30/1951","08/30/1951","D&A","Plugged and Abandoned","3760","2174","KB"," "
"1001230700","15-065-01454","ANDRESON 'B'","3","BARNETT OIL CO., ET AL","FourWinds Oil Corporation","Morel","9","S","21","W","21"," "," ","NE","NW","NW","-330","990","NW","-99.6761465","39.2624838","Graham","","05/13/1948","06/11/1948","","OIL","Producing","3778","2268","DF"," "
"1050388113","15-065-01956-0003","COOLEY","3","Trans Pacific Oil Corporation","Trans Pacific Oil Corporation","Morel","9","S","21","W","17"," "," ","SW","NW","SE","1717","-2400","SE","-99.6877363","39.268072","Graham","","","","","SWD","Authorized Injection Well","4125","2288","DF"," "
"1028094932","15-065-20636-0001","BALTHAZOR","5","MONSANTO CO.","Mai Oil Operations, Inc.","Morel","9","S","21","W","13"," "," ","SW","NW","SE","1799","-2372","SE","-99.6129593","39.2687018","Graham","","","06/10/1983","","SWD","Authorized Injection Well","3799","2215","KB"," "
"1006173119","15-065-22216","KNIPP","1","Balthazor Oil Co.","Production Drilling, Inc.","Morel","9","S","21","W","12"," ","W2","SE","SE","SW","330","-3170","SE","-99.6160222","39.2791703","Graham","07/26/1985","08/26/1985","10/22/1985","","OIL","Recompleted","3740","2140","KB","Arbuckle"
"1036282375","15-065-01408-0001","Trexler, O. E.","5-W","Elysium Energy, LLC","Noble Energy, Inc.","Morel","9","S","21","W","15"," "," ","NW","NW","NE","4982","-2428","SE","-99.6503165","39.2772205","Graham","","","04/15/2003","01/23/2012","EOR-P&A","Plugged and Abandoned","3702","2211","GL"," "
"1036916510","15-065-01927-0001","Clack 'B'","1","Cities Service Oil Co.","Vess Oil Corporation","Morel","9","S","21","W","16"," "," ","S2","SW","NW","2970","-4620","SE","-99.677344","39.2715393","Graham","","","08/12/1999","08/18/1999","D&A","Plugged and Abandoned","3698","2204","KB"," "
"1006344488","15-065-03473","Cooley 'B'","12","Palmer Oil Corp. and Natl. Coop. Refinery Assoc.","","Morel","9","S","21","W","17"," "," ","NE","NW","NE","4950","-1650","SE","-99.6853016","39.2769526","Graham","","12/05/1951","01/14/1952","","OIL","Converted to SWD Well","3789","2245","KB"," "
"1042656317","15-065-01438-0001","Sutor 'B'","5","Meridian Energy Inc.","Meridian Energy Inc.","Morel","9","S","21","W","18"," "," ","NE","NW","SE","2310","-1650","SE","-99.7041407","39.2696953","Graham","07/13/2010","06/03/2011","09/30/2011","","OIL","Producing","3828","2299","KB","Arbuckle"
"1001230481","15-065-02882","E. CLACK","2","Continental Oil Co.","Citation Oil & Gas Corp.","Morel","9","S","21","W","10"," ","SE","SE","SE","SW","321","2357","SW","-99.6525749","39.2789983","Graham","","02/07/1944","03/31/1944","","OIL","Recompleted","3688","2203","DF"," "
"1001230580","15-065-01951","DRUMM COMMISSION CO.","4","Continental Oil Co.","","Morel","9","S","21","W","16"," "," ","SW","NE","NE","4290","-990","SE","-99.6644617","39.2752495","Graham","","04/30/1948","05/18/1948","","OIL","Recompleted","3674","2174","KB"," "
"1001230685","15-065-02436","FURY 'A'","3","CITIES SERVICE CO","OXY USA Inc.","Morel","9","S","21","W","20"," "," ","NW","SW","NE","3630","-2310","SE","-99.687749","39.2588031","Graham","","03/13/1951","03/25/1951","03/26/1951","D&A","Plugged and Abandoned","3860","2296","KB"," "
"1001230995","15-065-02174","MILLS","1","Dane G. Hansen Trust","","Morel","9","S","22","W","24"," "," ","NE","NE","NE","4950","-330","SE","-99.7173196","39.2624321","Graham","","07/18/1953","07/26/1953","07/26/1953","D&A","Plugged and Abandoned","3910","2311","KB"," "
"1002915104","15-065-01140","DAVIGNON","1","CITIES SERVICE OIL COMPANY","OXY USA Inc.","Morel","9","S","21","W","20"," "," ","NW","NW","NW","4950","-4950","SE","-99.6971271","39.2624209","Graham","","02/21/1950","03/08/1950","11/02/1970","OIL-P&A","Plugged and Abandoned","3832","2313","KB"," "
"1006060016","15-065-21186","Balthazor 'A'","1","Mobil Oil Corp.","Manuel Corporation","Morel","9","S","21","W","23"," "," ","NW","SW","NE","3630","-2310","SE","-99.6320056","39.2589639","Graham","12/06/1979","12/26/1979","01/15/1980","10/13/2004","OIL-P&A","Plugged and Abandoned","3805","2294","KB"," "
"1001230787","15-065-02937","Cox 'A'","1","DERBY OIL CO.","","Morel","9","S","21","W","26"," "," ","NE","NE","NE","4950","-330","SE","-99.6251991","39.24803","Graham","","07/09/1948","07/30/1948","07/29/1959","OIL-P&A","Plugged and Abandoned","3810","2280","KB"," "
"1006059049","15-065-20649","L. DESAIRE","2","Continental Oil Co.","","Morel","9","S","21","W","10"," "," ","SW","SW","NE","2970","-2310","SE","-99.6501742","39.2862679","Graham","12/17/1973","12/21/1973","01/31/1974","","OIL","Recompleted","3722","2172","KB","Arbuckle"
"1002915140","15-065-01481","Balthazor","3","Buttram Petroleum Corp.","","Morel","9","S","21","W","23"," "," ","NW","SE","NE","3630","-990","SE","-99.6273437","39.2589363","Graham","","04/07/1944","05/26/1944","","OIL","Recompleted","3760","2257","KB"," "
"1042763696","15-065-23669","Benson","9","Berexco, LLC","BEREXCO LLC","Morel","9","S","21","W","15"," ","NW","SW","NE","SW","1670","1400","SW","-99.65613","39.2680917","Graham","08/19/2010","09/03/2010","10/05/2010","","OIL","Converted to SWD Well","3877","2247","KB","Arbuckle"
"1006062281","15-065-22467","EICHMAN","14","Dane G. Hansen Trust","Hansen, Dane G. - Trust","Morel","9","S","21","W","13"," "," ","NW","NE","NW","4950","-3630","SE","-99.6176637","39.2773014","Graham","06/16/1988","06/22/1988","06/29/1988","06/29/1988","D&A","Plugged and Abandoned","3710","2151","KB"," "
"1006062335","15-065-22496","KNIPP","4","AL-LA-LYN OIL, INC.","American Warrior, Inc.","Morel","9","S","21","W","12"," ","NW","NW","SE","SW","1135","1480","SW","-99.6184675","39.2813556","Graham","10/08/1988","10/19/1988","01/09/1989","","OIL","Inactive Well","3692","2134","KB","Arbuckle"
"1006063183","15-065-20069","Hinkhouse","7","Coop. Refining Assoc.","BEREXCO LLC","Morel","9","S","21","W","14"," ","SW","NE","SE","NW","3453","-3123","SE","-99.6343752","39.2731502","Graham","07/27/1967","08/04/1967","08/17/1967","11/01/2017","OIL-P&A","Plugged and Abandoned","3689","2225","KB","Lansing"
"1006346820","15-065-03367","J. F. LOVERIDGE","1","Continental Oil Co.","","Morel","9","S","21","W","10"," "," "," ","W2","SE","1320","-1650","SE","-99.6478517","39.2817305","Graham","","03/26/1940","04/19/1940","","OIL","Recompleted","3710","2202","KB"," "
"1044783400","15-065-02984-0001","Cooley","2","MEM Partnership LP","HG Oil Holdings, LLC","Morel","9","S","21","W","7"," ","SE","NE","SW","SW","977","-4000","SE","-99.7124235","39.2806007","Graham","","12/31/2013","12/31/2013","","OIL","Producing","3816","2313","KB"," "
"1006060947","15-065-21712","DAVIGNON 'A'","1","F & J OIL","F & J Oil Company, Inc.","Morel","9","S","21","W","20"," "," ","NW","SW","NW","3630","-4950","SE","-99.6970737","39.2587956","Graham","10/29/1982","12/21/1982","01/04/1983","01/04/1983","D&A","Plugged and Abandoned","3952","2352","KB"," "
"1006060964","15-065-21721","LEWIS FAMILY FARMS","1","JOLLY J., INC.","Jolly J., Inc.","Morel","9","S","21","W","23"," "," ","S2","NW","SW","1650","-4620","SE","-99.6402766","39.2535749","Graham","11/10/1982","11/12/1982","11/20/1982","11/20/1982","D&A","Plugged and Abandoned","3859","2316","KB"," "
"1006061514","15-065-22032","BALTHAZOR","9","Monsanto Oil","","Morel","9","S","21","W","13"," "," ","NE","SE","SW","990","-2970","SE","-99.6154453","39.2664433","Graham","07/26/1984","08/02/1984","08/09/1984","","OIL","Recompleted","3820","2202","KB","Arbuckle & Lansing-Kansas City"
"1006060979","15-065-21730","Maxfield-Thomason","1","N-B CO., INC.","","Morel","9","S","21","W","8"," "," ","NE","NE","NE","-330","-330","NE","-99.6804959","39.2915897","Graham","11/29/1982","01/16/1983","01/23/1983","01/23/1983","D&A","Plugged and Abandoned","3850","2263","KB"," "
"1006062918","15-065-30038","CLACK","1","Raymond Oil Co., Inc.","","Morel","9","S","21","W","8"," "," ","NE","NW","NW","4950","-4290","SE","-99.6944891","39.291546","Graham","07/27/1965","08/16/1965","08/25/1965","08/27/1965","D&A","Plugged and Abandoned","3812","2247","KB"," "
"1006061116","15-065-21807","BUSS","2","Raymond Oil Co., Inc.","Raymond Oil Company, Inc.","Morel","9","S","22","W","12"," "," ","NE","SW","NE","-1650","-1650","NE","-99.7218909","39.2878249","Graham","06/03/1983","06/20/1983","06/29/1983","06/29/1983","D&A","Plugged and Abandoned","3859","2234","KB","Arbuckle"
"1006062500","15-065-22586","KNIPP","5","AL-LA-LYN OIL, INC.","Al-La-Lyn Oil, Inc.","Morel","9","S","21","W","12"," "," ","W2","NW","SW","1980","-4950","SE","-99.6222698","39.2836367","Graham","07/26/1990","08/04/1990","08/15/1990","08/15/1990","D&A","Plugged and Abandoned","3780","2187","KB"," "
"1006062692","15-065-22701","BRAULT","1","N-B CO., INC.","N-B Company, Inc.","Morel","9","S","21","W","13"," "," ","NE","NW","SW","2210","-4340","SE","-99.6202508","39.2697551","Graham","11/16/1992","11/27/1992","12/04/1992","12/04/1992","D&A","Plugged and Abandoned","3715","2163","KB","Arbuckle"
"1006061253","15-065-21883","BALTHAZOR","7","MONSANTO OIL CO.","Mai Oil Operations, Inc.","Morel","9","S","21","W","13"," "," ","NW","NE","SW","2310","-3630","SE","-99.61793","39.27005","Graham","10/20/1983","11/17/1983","12/21/1983","","OIL","Producing","3830","2195","KB","Arbuckle"
"1006061526","15-065-22038","Hinkhouse 'A'","1","Terra Resources, Inc.","BEREXCO LLC","Morel","9","S","21","W","14"," ","W2","SE","SE","NW","2970","-3065","SE","-99.6345857","39.271751","Graham","08/03/1984","08/13/1984","10/01/1984","","OIL","Producing","3800","2232","KB","Arbuckle"
"1006061435","15-065-21987","Cooley 'B'","14","American Petrofina Co. of Texas","","Morel","9","S","21","W","17"," ","SW","SE","SE","NW","2864","-3076","SE","-99.6904174","39.271215","Graham","05/31/1984","06/02/1984","06/29/1984","","OIL","Recompleted","3764","2272","KB","Kansas City Group"
"1006062546","15-065-22617","COX 'C'","3","COLLINS JOHN B","B-J Oil Co.","Morel","9","S","21","W","26"," "," ","S2","NW","NE","4290","-1910","SE","-99.6307387","39.2462128","Graham","01/08/1991","01/18/1991","01/31/1991","01/31/1991","D&A","Plugged and Abandoned","3835","2288","KB"," "
"1006062548","15-065-22618","CLARK","1","WILDHORSE OIL CO.","Wildhorse Oil","Morel","9","S","21","W","4"," "," ","N2","SE","SW","990","-3475","SE","-99.6729286","39.2952308","Graham","01/08/1991","01/15/1991","01/23/1991","","OIL","ON LIST","3759","2203","KB","Arbuckle"
"1006062191","15-065-22418","GOSSELIN","1-10","LASMO ENERGY","Lasmo Energy Corporation","Morel","9","S","21","W","10"," "," ","E2","NW","NW","4620","-4400","SE","-99.6575497","39.2908175","Graham","10/26/1987","10/29/1987","12/02/1987","02/02/1988","OIL-P&A","Plugged and Abandoned","3790","2156","KB"," "
"1006061457","15-065-22003","Foster","1","N-B Co., Inc.","N-B Company, Inc.","Morel","9","S","21","W","7"," "," ","SW","NW","NW","4290","-4950","SE","-99.7157329","39.2896911","Graham","06/04/1984","06/17/1984","06/25/1984","06/25/1984","D&A","Plugged and Abandoned","3868","2276","KB"," "
"1006060911","15-065-21693","BALTHAZOR","1","LIBERTY ENTERPRISES INC","Liberty Enterprises, Inc.","Morel","9","S","21","W","12"," "," ","NE","SW","SW","990","-4290","SE","-99.6199631","39.2809418","Graham","09/02/1982","09/30/1982","10/10/1982","10/10/1982","D&A","Plugged and Abandoned","3736","2139","KB"," "
"1006061542","15-065-22050","BUSS 'C'","5","Samson Resources","Paul Bowman Oil Trust","Morel","9","S","22","W","13"," "," ","S2","N2","NE","4290","-1320","SE","-99.7207327","39.2751455","Graham","08/17/1984","08/22/1984","08/31/1984","","OIL","Producing","3870","2248","KB","Arbuckle"
"1006061577","15-065-22070","Sutor","2","V&F Oil Company","V & F Oil Company, a General Partnership","Morel","9","S","21","W","22"," "," ","W2","NE","SW","1980","-3860","SE","-99.6557505","39.2543925","Graham","09/17/1984","09/29/1984","10/25/1984","","OIL","Producing","3819","2260","KB","Arbuckle"
"1006061506","15-065-22028","EICHMAN","13","Dane G. Hansen Trust","DGH Oil, LLC","Morel","9","S","21","W","13"," "," ","SW","SE","NW","2970","-3630","SE","-99.6177205","39.2718629","Graham","07/18/1984","07/23/1984","07/31/1984","","OIL","Producing","3697","2165","KB","Lansing-Kansas City"
"1006062612","15-065-22653","EICHMAN","15","Dane G. Hansen Trust","DGH Oil, LLC","Morel","9","S","21","W","13"," "," ","E2","SW","NW","3300","-4290","SE","-99.6200429","39.2727504","Graham","10/29/1991","11/13/1991","01/14/1992","","OIL","Producing","3701","2165","KB"," "
"1006063181","15-065-30307","Balthazor","1","C-G DRILLING CO.","","Morel","9","S","21","W","24"," "," ","NE","SE","NW","3630","-2970","SE","-99.6155507","39.259027","Graham","08/17/1965","08/16/1965","08/23/1965","08/23/1965","D&A","Plugged and Abandoned","3450","2207","KB","Heebner"
"1001230529","15-065-02887","LANSING KANSAS CITY UNIT","13","Continental Oil Co.","Gore Oil Company","Morel","9","S","21","W","14"," "," ","NE","SW","SW","990","990","SW","-99.638226","39.2662808","Graham","","05/20/1947","06/01/1947","","OIL","Producing","3742","2239","DF"," "
"1006062443","15-065-22555","WANDA KORTAN","1","WESTERN KANSAS EXPLORATION INC.","West X, Inc.","Morel","9","S","21","W","19"," "," ","NW","NE","NE","4950","-990","SE","-99.7018091","39.262423","Graham","01/31/1990","02/09/1990","02/15/1990","02/15/1990","D&A","Plugged and Abandoned","3900","2315","KB","Arbuckle"
"1006062448","15-065-22559","DARNELL 'A'","7","Oxy USA, Inc.","Vess Oil Corporation","Morel","9","S","21","W","22"," "," ","SW","NE","NW","4290","-3630","SE","-99.6549517","39.2607427","Graham","03/09/1990","03/21/1990","09/26/1990","07/16/2003","OIL-P&A","Plugged and Abandoned","3980","2280","KB","Arbuckle"
"1006060183","15-065-21277","Cooley","1","Oil International, LTD","Gore Oil Company","Morel","9","S","21","W","7"," "," ","NE","NE","SE","2054","-281","SE","-99.6992665","39.2835927","Graham","07/14/1980","07/15/1980","07/21/1980","","OIL","Producing","3799","2277","KB"," "
"1006060474","15-065-21441","Knipp","19","Maurice L. Brown Co.","Benchmark Oil & Gas Corporation","Morel","9","S","21","W","14"," "," ","SW","NE","SW","1650","-3630","SE","-99.636578","39.268114","Graham","06/10/1981","08/21/1981","09/01/1981","12/22/1999","OIL-P&A","Plugged and Abandoned","4004","2235","KB"," "
"1006061574","15-065-22068","COOLEY","2","AYLWARD DRILLING CO.","Gore Oil Company","Morel","9","S","21","W","17"," "," ","NW","SE","SE","990","-990","SE","-99.6831177","39.2660803","Graham","09/06/1984","09/18/1984","09/24/1984","06/07/2005","OIL-P&A","Plugged and Abandoned","3749","2245","KB","Arbuckle"
"1006060509","15-065-21462","Darnell","1","Excel Energy","Downing-Nelson Oil Co Inc","Morel","9","S","21","W","21"," "," ","SW","NE","SW","1650","-3630","SE","-99.6737903","39.2533952","Graham","06/27/1971","07/13/1981","09/23/1981","03/23/2004","OIL-P&A","Plugged and Abandoned","4003","2280","KB"," "
"1044592298","15-065-30030-0001","Hinkhouse","5","Berexco, Inc.","BEREXCO LLC","Morel","9","S","21","W","14"," ","NE","NE","SE","NW","3630","-2970","SE","-99.6342519","39.2735656","Graham","","","05/19/1966","","OIL","Inactive Well","3707","2235","KB"," "
"1001230528","15-065-02885","A. Morel","4","Continental Oil Co.","","Morel","9","S","21","W","14"," "," ","SE","NW","SW","1650","-4290","SE","-99.6389097","39.2681005","Graham","","08/17/1944","09/12/1944","02/09/1954","OIL-P&A","Plugged and Abandoned","3771","2268","KB"," "
"1030386450","15-065-02546-0001","Hinkhouse","4","Coop. Refining Assoc.","","Morel","9","S","21","W","14"," "," ","N2","NE","NW","4950","-3300","SE","-99.6354215","39.2771842","Graham","","08/07/1964","08/15/1964","08/15/1964","D&A","Plugged and Abandoned","3672","2204","DF"," "
"1006060002","15-065-21178","Morel","3","Maurice L. Brown Co.","Petroleum Production Management, Inc.","Morel","9","S","21","W","14"," ","NE","SE","NW","SW","1767","-4250","SE","-99.6387687","39.2684226","Graham","09/23/1979","09/25/1979","10/05/1979","","OIL","Converted to EOR Well","3762","2267","KB"," "
"1046461346","15-065-24134","HINKHOUSE","8","BEREXCO LLC","BEREXCO LLC","Morel","9","S","21","W","14"," "," "," "," ","NW","-1400","2244","NW","-99.6340478","39.2742864","Graham","05/16/2017","06/20/2017","10/01/2017","","OIL","Producing","3782","2213","KB","Arbuckle"
"1001230516","15-065-01373","BRAULT","1","Sinclair Prairie Oil Co.","Petroleum Production Management, Inc.","Morel","9","S","21","W","14"," "," ","NW","SE","SE","990","-990","SE","-99.6272494","39.2663557","Graham","","06/15/1944","07/09/1944","12/29/1981","OIL-P&A","Plugged and Abandoned","3774","2243","DF"," "
"1006061839","15-065-22221","Napue","3","Brougher Oil, Inc.","Charter Energy, Inc.","Morel","9","S","21","W","4"," "," ","SW","NE","SW","1650","-3630","SE","-99.6734575","39.2970421","Graham","08/12/1985","09/03/1985","10/02/1985","04/12/2005","OIL-P&A","Plugged and Abandoned","3810","2213","KB","Arbuckle"
"1006061882","15-065-22245","Napue","4","Brougher Oil, Inc.","Charter Energy, Inc.","Morel","9","S","21","W","4"," "," ","NW","NE","SW","2310","-3705","SE","-99.6737036","39.2988542","Graham","10/02/1985","10/03/1985","11/07/1985","04/13/2005","SWD-P&A","Plugged and Abandoned","4020","2217","KB"," "
"1006061949","15-065-22282","Cox 'C'","1","B-J Oil Company","Encore Operating Company","Morel","9","S","21","W","26"," "," ","SW","NW","NE","4290","-2310","SE","-99.632176","39.2460523","Graham","12/05/1985","12/23/1985","02/07/1986","06/25/2010","OIL-P&A","Plugged and Abandoned","3849","2281","KB","Arbuckle"
"1030571032","15-065-01375-0001","Hinkhouse","2","Coop. Refining Assoc.","Bramble Oil Company","Morel","9","S","21","W","14"," "," ","SE","NE","NW","4290","-2970","SE","-99.6342538","39.2753783","Graham","","12/10/1965","12/10/1965","07/26/2004","OIL-P&A","Plugged and Abandoned","3701","2221","DF"," "
"1030571024","15-065-01010-0001","NAPUE","1","Charter Energy, Inc. and Brougher Oil","Charter Energy, Inc.","Morel","9","S","21","W","4"," "," ","NE","NE","SW","2310","-2970","SE","-99.6711058","39.2988606","Graham","12/17/1984","01/15/1985","02/15/1985","04/13/2005","OIL-P&A","Plugged and Abandoned","3810","2179","KB","Marmaton Group"
"1030681313","15-065-00924-0001","M. DEYOUNG","1","BOWMAN OIL CO.","Bowman Oil Company, a General Partnership","Morel","9","S","21","W","24"," "," ","NW","SW","NE","3630","-2310","SE","-99.613219","39.2590572","Graham","08/21/1989","08/18/1989","09/28/1989","04/21/1998","OIL-P&A","Plugged and Abandoned","3788","2239","KB","Arbuckle"
"1039143435","15-065-19016-0002","Davignon","2","Meridian Energy Inc.","Gore Oil Company","Morel","9","S","21","W","20"," ","NW","NW","NE","NW","-330","1650","NW","-99.6924832","39.2624394","Graham","","09/05/2008","10/09/2008","","OIL","Producing","3838","2319","KB","Arbuckle"
"1006060943","15-065-21710","Buss, Shirley","1","N-B CO., INC.","","Morel","9","S","21","W","6"," "," ","S2","S2","SW","330","-3960","SE","-99.7122079","39.2933302","Graham","10/22/1982","10/29/1982","11/05/1982","11/05/1982","D&A","Plugged and Abandoned","3863","2275","KB"," "
"1031639414","15-065-23008","Balthazor 'A'","2","Berexco Inc.","BEREXCO LLC","Morel","9","S","21","W","23"," "," ","SE","NW","NE","4080","-1550","SE","-99.6292959","39.2601838","Graham","09/17/2004","11/23/2004","12/10/2004","","OIL","Producing","3765","2270","KB","Arbuckle"
"1033431655","15-065-01430-0002","MCFARLAND","SWD","John O. Farmer, Inc.","Farmer, John O., Inc.","Morel","9","S","21","W","18"," "," ","SE","NW","NE","4290","-1650","SE","-99.7041351","39.2751333","Graham","07/06/2005","","","","LOC","Expired Intent to Drill (C-1)","","2280","GL","Cedar Hills"
"1006060332","15-065-21360","MILLER","1","JOHN JAY DARRAH, JR. & ELK RIVER OIL","","Morel","9","S","21","W","27"," "," ","NW","NE","NW","4950","-3630","SE","-99.6549274","39.2479846","Graham","12/29/1980","04/10/1981","04/15/1981","04/15/1981","D&A","Plugged and Abandoned","3858","2295","KB"," "
"1001230740","15-065-01485","WILLIAM HINMAN","3","Gulf Oil Corp.","Murfin Drilling Co., Inc.","Morel","9","S","21","W","23"," "," ","NW","NE","SE","2310","-990","SE","-99.6274189","39.2553113","Graham","","12/24/1943","01/25/1944","06/25/1998","OIL-P&A","Plugged and Abandoned","3793","2270","DF"," "
"1037023926","15-065-19138-0003","MOREL 'B'","4","Oxy USA, Inc.","Vess Oil Corporation","Morel","9","S","21","W","22"," "," ","NW","NW","NE","4950","-2310","SE","-99.6502932","39.2625894","Graham","","03/29/1989","05/09/1989","","OIL","Producing","3750","2256","KB","Lansing-Kansas City And Arbuckle"
"1006058912","15-065-20578","J. F. LOVERIDGE","5","Continental Oil Co.","Citation Oil & Gas Corp.","Morel","9","S","21","W","10"," ","SE","SE","NE","SE","1350","-324","SE","-99.643166","39.2818015","Graham","11/08/1972","12/09/1972","12/20/1972","","OIL","Producing","3770","2231","KB"," "
"1030279117","15-065-20620-0001","BALTHAZOR","4","MONSANTO CO.","Mai Oil Operations, Inc.","Morel","9","S","21","W","13"," ","NW","SE","NE","SW","1671","-3126","SE","-99.615609","39.2683618","Graham","","","01/26/1994","06/16/2021","EOR-P&A","Plugged and Abandoned","3765","2186","KB"," "
"1036876262","15-065-19124","Cooley","2","Peel-Hardman Oil Operator","","Morel","9","S","21","W","7"," "," ","S2","NE","SE","1650","-660","SE","-99.7006115","39.2824797","Graham","","06/29/1953","07/08/1953","07/16/1956","OIL-P&A","Plugged and Abandoned","3777","2241","KB"," "
"1036876263","15-065-19124-0002","COOLEY","SWD","J & L OIL CO., INC.","MEM Partnership LP, a General Partnership","Morel","9","S","21","W","7"," "," ","SE","NE","SE","1675","-410","SE","-99.6997277","39.2825506","Graham","","","","","SWD","Injection Authorization Terminated","","2241","KB"," "
"1036876264","15-065-03107-0002","Cooley","3","Graves Drilling Co., Inc.","MEM Partnership LP, a General Partnership","Morel","9","S","21","W","7"," "," ","S2","NW","SW","1641","-4479","SE","-99.7137354","39.2824511","Graham","","","08/05/1977","","EOR","Recompleted","3816","2295","DF"," "
"1001230741","15-065-01484","WILLIAM HINMAN","2","Gulf Oil Corp.","Murfin Drilling Co., Inc.","Morel","9","S","21","W","23"," "," ","NW","NW","SE","1980","-1980","SE","-99.6309341","39.2544258","Graham","","11/11/1943","12/12/1943","06/25/1998","OIL-P&A","Plugged and Abandoned","3801","2285","DF"," "
"1036876253","15-065-19124-0001","Cooley","2","J & L Oil Co., Inc.","","Morel","9","S","21","W","7"," "," ","S2","NE","SE","1650","-660","SE","-99.7006115","39.2824797","Graham","11/03/1977","","","","LOC","Expired Intent to Drill (C-1)","","2241","KB"," "
"1002914311","15-065-00383","COCHRAN","1","BARNETT DRLG","","Morel","9","S","21","W","24"," "," ","NW","NW","SE","-3300","3300","NW","-99.6122764","39.2546865","Graham","","06/20/1953","07/03/1953","07/03/1953","D&A","Plugged and Abandoned","3791","2228","KB"," "
"1002914902","15-065-00944","Shaw","2","Natl. Coop. Refinery Assoc.","","Morel","9","S","21","W","7"," "," ","E2","NW","NW","4620","-4290","SE","-99.713396","39.2906035","Graham","01/03/1957","01/04/1957","01/17/1957","12/20/1994","OIL-P&A","Converted to EOR Well","3856","2276","KB"," "
"1002914338","15-065-00409","FINK","1","HOWARD FINK ET AL","","Morel","9","S","21","W","6"," "," ","NE","SE","SE","990","-330","SE","-99.6993445","39.2952092","Graham","","08/21/1954","09/01/1954","09/30/1954","D&A","Plugged and Abandoned","3798","2223","KB"," "
"1002914227","15-065-00305","MORIN","1","NADEL AND GUSSMAN OIL COMPANY","","Morel","9","S","21","W","12"," "," ","SW","SW","NW","2970","330","SW","-99.622426","39.286354","Graham","","04/15/1952","04/25/1952","04/25/1952","D&A","Plugged and Abandoned","3780","2164","KB"," "
"1002914969","15-065-01010","NAPUE","1","BARNETT OIL COMPANY","","Morel","9","S","21","W","4"," "," ","NE","NE","SW","2310","-2970","SE","-99.6711058","39.2988606","Graham","","12/15/1949","12/25/1949","12/25/1949","D&A","Plugged and Abandoned","3742","2172","KB"," "
"1002914923","15-065-00965","DESAIRE","1","HERMAN G. KAISER & K & E DRILLING, INC.","","Morel","9","S","21","W","10"," "," ","SE","SW","NW","3300","850","SW","-99.657762","39.2871927","Graham","01/22/1957","01/22/1957","01/30/1957","01/30/1957","D&A","Plugged and Abandoned","3705","2165","KB"," "
"1006060466","15-065-21437","NEWELL","1","JOHN B. COLLINS","","Morel","9","S","21","W","11"," "," ","SE","SW","NW","","","","-99.638558","39.2862696","Graham","05/29/1981","06/01/1981","06/06/1981","06/06/1981","D&A","Plugged and Abandoned","3825","2268","KB"," "
"1002915164","15-065-02562","JOHN BALTHAZOR","1","SKELLY OIL CO","","Morel","9","S","21","W","24"," "," ","NW","SW","NW","3637","330","SW","-99.6226809","39.2589538","Graham","","07/04/1944","07/25/1944","07/26/1944","D&A","Plugged and Abandoned","3900","2248","DF"," "
"1002915129","15-065-01377","Knipp","2","SHELL OIL CO. INC","Gore Oil Company","Morel","9","S","21","W","14"," "," ","NW","NW","SE","2310","-2310","SE","-99.6315243","39.2699452","Graham","","06/04/1944","07/01/1944","","OIL","Producing","3705","2218","DF"," "
"1002915133","15-065-01409","Trexler, O. E.","7","Continental Oil Co.","Elysium Energy, L.L.C.","Morel","9","S","21","W","15"," "," ","SE","SE","NW","2970","-2970","SE","-99.6525689","39.2716736","Graham","","08/09/1946","09/11/1946","07/01/1954","OIL","Recompleted","3703","2223","DF","Arbuckle, Lansing-Kansas City"
"1002915134","15-065-01411-0001","Trexler, O. E.","9","Continental Oil Co.","Elysium Energy, L.L.C.","Morel","9","S","21","W","15"," "," ","SW","SW","NE","2955","-2357","SE","-99.6504035","39.2716393","Graham","","","10/05/1961","","OIL","Recompleted","3686","2209","DF"," "
"1002915139","15-065-01012-0001","KORTAN","1","CRUDE RECOVERY","Gore Oil Company","Morel","9","S","21","W","20"," "," ","NW","NW","NE","4994","-2455","SE","-99.6877122","39.2625411","Graham","04/11/1985","04/22/1985","05/17/1985","07/20/2006","OIL-P&A","Plugged and Abandoned","3812","2297","KB","Arbuckle Group"
"1002915178","15-065-01028-0001","DARNELL","2","ARROWSTAR PROD","Arrowstar Production Co.","Morel","9","S","21","W","21"," "," ","NW","NE","SW","2310","1650","SW","-99.6737088","39.2552082","Graham","01/24/1994","01/25/1994","02/03/1994","02/03/1994","OIL-P&A","Plugged and Abandoned","3786","2268","GL"," "
"1002914096","15-065-00178","BUSS 'C'","1","ANDERSON-PRICHARD OIL CORP.","Paul Bowman Oil","Morel","9","S","22","W","13"," "," ","SE","SE","NE","2970","-330","SE","-99.7172618","39.2715344","Graham","","06/27/1951","07/07/1951","10/04/2004","OIL-P&A","Plugged and Abandoned","3806","2288","KB","Arbuckle Group"
"1002914219","15-065-00297","MORIN","1","Jones, Shelburne, and Farmer, Inc.","","Morel","9","S","21","W","11"," "," ","NW","SE","SE","990","-990","SE","-99.6272054","39.2808847","Graham","","09/16/1952","09/26/1952","09/26/1952","D&A","Plugged and Abandoned","3791","2173","KB"," "
"1002914122","15-065-00204","Vesper","1","BARNETT DRILLING, INC. ET AL","","Morel","9","S","22","W","12"," "," ","SE","SE","SW","330","-3300","SE","-99.7277106","39.2786806","Graham","","12/29/1950","01/10/1951","01/10/1951","D&A","Plugged and Abandoned","3896","2260","KB"," "
"1031002614","15-065-01013-0001","KORTAN","2","CRUDE RECOVERY CORPORATION","Geronimo Resources","Morel","9","S","21","W","20"," "," ","SW","NW","NE","4338","-2463","SE","-99.688318","39.2607471","Graham","04/11/1985","04/20/1985","05/23/1985","","SWD","Recompleted","4160","2296","KB"," "
"1037235404","15-065-23348","Andreson 'A'","15","Black Diamond Oil, Inc.","FourWinds Oil Corporation","Morel","9","S","21","W","16"," "," ","S2","NE","SW","1650","1980","SW","-99.6724149","39.2679711","Graham","09/14/2007","11/28/2007","02/21/2008","09/11/2023","OIL-P&A","Plugged and Abandoned","3797","2224","KB","Arbuckle"
"1002915131","15-065-01405","Trexler, O. E.","2","Continental Oil Co.","Elysium Energy, L.L.C.","Morel","9","S","21","W","15"," "," ","NW","SW","NW","3630","-4950","SE","-99.6595508","39.2734639","Graham","","11/21/1941","12/17/1941","","OIL","Recompleted","3701","2204","DF"," "
"1001230540","15-065-01412","Trexler, O. E.","12","Continental Oil Co.","Phillips Petroleum Co.","Morel","9","S","21","W","15"," "," ","E2","NW","NW","4620","-4290","SE","-99.657199","39.2761904","Graham","07/19/1962","07/19/1962","07/26/1962","11/01/1990","OIL-P&A","Plugged and Abandoned","3690","2187","KB"," "
"1001230669","15-065-01444","FURY 'B'","2","CITIES SERVICE CO","","Morel","9","S","21","W","19"," "," ","SW","NE","NE","4290","-990","SE","-99.7017977","39.2606104","Graham","","08/10/1950","08/25/1950","02/02/1969","OIL-P&A","Plugged and Abandoned","3847","2310","KB"," "
"1001230996","15-065-01532","MILLS","1","C-G DRILLING CO. & R.A. COOK","Vess Oil Corporation","Morel","9","S","22","W","24"," "," ","SE","SE","NE","2970","-330","SE","-99.717308","39.2569941","Graham","12/02/1957","12/02/1957","12/12/1957","04/04/2000","OIL-P&A","Plugged and Abandoned","3891","2338","KB"," "
"1002915214","15-065-20033","EICHMAN","8","Dane G. Hansen Trust","","Morel","9","S","21","W","12"," "," ","NE","SW","SE","990","-1650","SE","-99.6106333","39.2810393","Graham","04/18/1967","04/18/1967","04/27/1967","04/27/1967","D&A","Plugged and Abandoned","3690","2136","KB","Arbuckle"
"1002913998","15-065-00087","TEALL 'A'","1","B & R DRLG SVC","","Morel","9","S","21","W","25","C"," ","NE","NE","SE","2310","-330","SE","-99.6064073","39.2410092","Graham","","11/04/1948","11/20/1948","","D&A"," ","3989","2317","DF"," "
"1002914805","15-065-00851","O. LEARY","1","Jones, Shelburne, and Farmer, Inc.","","Morel","9","S","21","W","6"," "," ","SW","SW","SE","330","-2310","SE","-99.7063757","39.2933603","Graham","08/27/1956","08/24/1956","09/02/1956","09/02/1956","D&A","Plugged and Abandoned","3811","2199","KB"," "
"1002914008","15-065-00097","EICHMAN","1","Dane G. Hansen Trust","","Morel","9","S","21","W","12"," "," ","SE","SE","SE","330","-330","SE","-99.6059856","39.2792752","Graham","","08/31/1949","09/09/1949","09/09/1949","D&A","Plugged and Abandoned","3775","2167","DF"," "
"1002914863","15-065-00906","BUNDY","1","THUNDERBIRD DRILLING, INC.","","Morel","9","S","22","W","12"," "," ","NW","NW","NW","-330","330","NW","-99.7335672","39.2913552","Graham","07/24/1956","07/23/1956","08/01/1956","08/01/1956","D&A","Plugged and Abandoned","3904","2271","KB"," "
"1044084240","15-065-23824","Cooley 'B'","21","Berexco LLC","BEREXCO LLC","Morel","9","S","21","W","17"," "," ","NW","NW","NE","-330","-2310","NE","-99.6876338","39.2770392","Graham","03/30/2012","04/03/2012","06/07/2012","","OIL","Producing","3870","2272","KB","Arbuckle"
"1006061732","15-065-22158","Trexler","16","Conoco, Inc.","Noble Energy, Inc.","Morel","9","S","21","W","15"," ","SW","NE","NW","NE","4780","-1832","SE","-99.6485118","39.2766577","Graham","03/14/1985","04/16/1985","04/26/1985","02/04/2011","OIL-P&A","Plugged and Abandoned","4047","2226","KB","Lansing-Kansas City"
"1006061736","15-065-22161","Cooley 'A'","12","American Petrofina Co. of Texas","National Cooperative Refinery Assoc.","Morel","9","S","21","W","17"," "," ","NW","NE","SW","2310","-3555","SE","-99.6921304","39.2696906","Graham","03/26/1985","04/15/1985","05/17/1985","","OIL","Recompleted","3787","2298","KB","Arbuckle"
"1006061757","15-065-22173","BUSS 'D'","4","SAMSON RESOURCES CO","Paul Bowman Oil Trust","Morel","9","S","22","W","13"," "," ","NW","NE","SE","2310","-990","SE","-99.7196069","39.2697121","Graham","04/11/1985","04/12/1985","04/19/1985","","OIL","Producing","3899","2284","KB","Arbuckle Group"
"1006063121","15-065-30205","C. BALTHAZOR","1","PETROLEUM INC","","Morel","9","S","21","W","12"," "," ","N2","SE","SW","990","-3300","SE","-99.6164644","39.2809783","Graham","10/25/1966","10/25/1966","11/02/1966","11/03/1966","D&A","Plugged and Abandoned","3721","2146","KB"," "
"1006061914","15-065-22263","Cooley 'B'","18","Fina Oil and Chemical Co.","National Cooperative Refinery Assoc.","Morel","9","S","21","W","17"," "," ","NW","SE","NW","3630","-3630","SE","-99.6923461","39.2733156","Graham","10/30/1985","01/07/1986","02/01/1986","","OIL","Recompleted","3789","2994","KB","Arbuckle"
"1006059053","15-065-20652","EICHMAN","10","Dane G. Hansen Trust","DGH Oil, LLC","Morel","9","S","21","W","13"," "," "," "," ","N2","3960","-2640","SE","-99.6141942","39.2746105","Graham","01/15/1974","01/27/1974","02/04/1974","","OIL","Producing","3684","2152","KB","Arbuckle"
"1028008130","15-065-22900","Morel","8","Elysium Energy, L.L.C.","Citation Oil & Gas Corp.","Morel","10","S","21","W","3"," "," ","NE","NE","SE","2310","-330","SE","-99.6433071","39.2116802","Graham","03/24/2003","07/31/2003","08/16/2003","10/18/2021","OIL-P&A","Plugged and Abandoned","3900","2298","KB","Arbuckle, Lansing Kansas City"
"1001230558","15-065-01402","J. MOREL","4","Continental Oil Co.","Citation Oil & Gas Corp.","Morel","9","S","21","W","15"," ","NE","NW","SW","SE","1048","-2310","SE","-99.6503325","39.266402","Graham","","05/21/1943","06/16/1943","","OIL","Producing","3714","2232","DF"," "
"1006061790","15-065-22193","Sutor 'B'","1","V&F Oil Company","V & F Oil Company, a General Partnership","Morel","9","S","21","W","22"," "," ","N2","N2","SE","2210","-1320","SE","-99.6467804","39.2550896","Graham","","06/06/1985","07/25/1985","","OIL","Producing","3824","2329","KB","Arbuckle"
"1006059220","15-065-20753","EICHMAN","12","Dane G. Hansen Trust","Hansen, Dane G. - Trust","Morel","9","S","21","W","13"," "," "," ","NE","NW","4620","-3300","SE","-99.6165072","39.2764044","Graham","04/09/1975","06/05/1975","06/13/1975","05/18/2000","OIL-P&A","Plugged and Abandoned","3694","2163","KB"," "
"1001230476","15-065-01363","E. CLACK 'A'","2","CONTINENTAL OIL CO","","Morel","9","S","21","W","10"," "," ","SE","SW","SW","330","990","SW","-99.6574055","39.2790348","Graham","","08/15/1951","09/05/1951","","OIL","Recompleted","3676","2196","KB"," "
"1001230475","15-065-01364","E. CLACK 'A'","3","Continental Oil Co.","Citation Oil & Gas Corp.","Morel","9","S","21","W","10"," ","SE","SE","NW","SW","1622","1012","SW","-99.6572634","39.2825829","Graham","","05/04/1956","05/12/1956","","OIL","Producing","3674","2190","KB"," "
"1001230513","15-065-01371","BRAULT","1","HARBAR DRILLING CO.","Bowman Oil Company, a General Partnership","Morel","9","S","21","W","14"," "," ","SW","SE","SE","330","-990","SE","-99.6272475","39.264543","Graham","","06/17/1948","07/07/1948","07/01/1987","OIL-P&A","Plugged and Abandoned","3765","2258","DF"," "
"1001230511","15-065-01385","LANSING KANSAS CITY UNIT (was KNIPP)","10","SHELL OIL CO.","Gore Oil Company","Morel","9","S","21","W","14"," "," ","NE","SE","SW","990","-2964","SE","-99.6336898","39.2663127","Graham","09/26/1963","09/27/1963","10/07/1963","","OIL","Producing","3770","2256","KB"," "
"1001230537","15-065-01386","LANSING KANSAS CITY UNIT (was KNIPP)","11","SHELL OIL CO.","Gore Oil Company","Morel","9","S","21","W","14"," "," ","SW","NW","SE","1650","-2304","SE","-99.6315225","39.2681325","Graham","10/14/1963","10/14/1963","11/14/1963","","OIL","Producing","3720","2223","KB"," "
"1001230582","15-065-01389","Andreson 'A'","2","Barnett Drilling Co.","FourWinds Oil Corporation","Morel","9","S","21","W","16"," "," ","NE","NE","SW","2310","2310","SW","-99.6714091","39.2697657","Graham","","12/17/1946","01/15/1947","","OIL","Producing","3694","2203","KB"," "
"1001230588","15-065-01393","Andreson 'A'","7","Barnett and Shields","Black Diamond Oil, Inc.","Morel","9","S","21","W","16"," "," ","W2","NW","SW","1980","-4620","SE","-99.6773865","39.26882","Graham","","01/06/1949","01/25/1949","10/09/1997","OIL-P&A","Plugged and Abandoned","3707","2219","DF"," "
"1001230505","15-065-02501","EICHMAN","6","Dane G. Hansen Trust","","Morel","9","S","21","W","13"," "," ","NW","SE","NW","3630","-3630","SE","-99.6177015","39.2736757","Graham","","04/30/1952","05/02/1952","05/02/1952","D&A","Plugged and Abandoned","3713","2154","KB"," "
"1026052633","15-065-01400","A. Morel","2","Continental Oil Co.","","Morel","9","S","21","W","15"," "," ","NE","NE","NE","4950","-330","SE","-99.6432018","39.2771417","Graham","","06/30/1942","07/22/1942","12/06/1991","OIL-P&A","Plugged and Abandoned","3720","2244","KB"," "
"1036917235","15-065-19130-0001","Trexler, O. E.","6","Continental Oil Co.","Conoco, Inc.","Morel","9","S","21","W","15"," "," ","SE","NW","NW","4290","-4290","SE","-99.6572057","39.2752841","Graham","","08/31/1949","09/14/1949","07/29/1954","SWD-P&A","Plugged and Abandoned","4116","2196","KB"," "
"1034469636","15-065-02891-0003","A. Morel","1","Elysium Energy, LLC","Citation Oil & Gas Corp.","Morel","9","S","21","W","15"," ","SE","SW","NE","NE","-1308","-973","NE","-99.6455069","39.2745224","Graham","","10/25/2002","11/14/2002","02/11/2016","OIL-P&A","Plugged and Abandoned","3720","2244","DF","Arbuckle"
"1002914216","15-065-00294","Bartlett 'B'","1","CITIES PRODUCTION CORP.","","Morel","9","S","21","W","9"," "," ","SE","SE","NW","3300","-3300","SE","-99.6724285","39.2870774","Graham","","11/09/1952","11/19/1952","11/21/1952","D&A","Plugged and Abandoned","3725","2161","KB"," "
"1001230485","15-065-02883","J. F. LOVERIDGE","3","Continental Oil Co.","Elysium Energy, L.L.C.","Morel","9","S","21","W","10"," "," ","SE","SW","SE","330","-1650","SE","-99.6478575","39.2790115","Graham","","10/27/1943","11/28/1943","","OIL","Recompleted","3790","2210","KB"," "
"1006059192","15-065-20736","CLACK-HINKHOUSE","1","JOHN P. JENNINGS","","Morel","9","S","21","W","8"," "," ","SW","NW","NW","4290","-4950","SE","-99.6968384","39.2897352","Graham","01/03/1975","04/02/1975","04/10/1975","04/10/1975","D&A","Plugged and Abandoned","3830","2273","KB"," "
"1006062380","15-065-22520","Cox","1","John B. Collins","B-J Oil Co.","Morel","9","S","21","W","26"," "," ","NE","SE","NW","3630","-2970","SE","-99.634442","39.2443971","Graham","","05/20/1989","05/25/1989","05/26/1989","D&A","Plugged and Abandoned","3840","2291","KB"," "
"1001230791","15-065-02936","Cox 'B'","1","B & R Drilling","","Morel","9","S","21","W","26"," "," ","NW","SW","NE","3630","-2310","SE","-99.6321113","39.244399","Graham","","09/14/1950","09/27/1950","05/15/1969","OIL-P&A","Plugged and Abandoned","3818","2291","KB"," "
"1006059264","15-065-20777","J. F. LOVERIDGE","7","Continental Oil Co.","","Morel","9","S","21","W","10"," "," ","NW","NW","SE","2310","-2310","SE","-99.650178","39.2844552","Graham","08/28/1975","09/03/1975","09/29/1975","","OIL","Recompleted","3734","2205","KB","Penn. Conglomerate"
"1006059063","15-065-20659","E. CLACK","4","CONTINENTAL OIL","","Morel","9","S","21","W","10"," "," ","NE","NE","SW","2090","2310","SW","-99.6526595","39.283857","Graham","03/14/1974","03/18/1974","03/29/1974","03/29/1974","D&A","Plugged and Abandoned","3736","2186","KB"," "
"1006059116","15-065-20691","EICHMAN","11","Dane G. Hansen Trust","DGH Oil, LLC","Morel","9","S","21","W","13"," "," ","N2","N2","N2","4620","-2640","SE","-99.6141753","39.2764233","Graham","06/24/1974","08/17/1974","08/24/1974","","OIL","Producing","3668","2146","KB"," "
"1006060336","15-065-21362","CLARK","1","JOHN JAY DARRAH & ELK RIVER CO.","","Morel","9","S","21","W","9"," "," ","NE","SE","NW","3630","-2970","SE","-99.6712468","39.2879964","Graham","12/30/1980","01/22/1981","01/29/1981","01/29/1981","D&A","Plugged and Abandoned","3733","2185","KB"," "
"1002915224","15-065-20043","SWENSON 'B'","7","BARNETT OIL","Farmer, John O., Inc.","Morel","9","S","21","W","8"," "," ","W2","NE","SW","1990","-3713","SE","-99.6921742","39.2833926","Graham","05/17/1967","05/16/1967","07/06/1967","03/04/2008","OIL-P&A","Plugged and Abandoned","3855","2315","KB","Lansing Group"
"1001230454","15-065-03289","E. E. CLACK","1","TRANS ERA PETROLEUM, INC.","","Morel","9","S","21","W","8"," "," ","SW","SW","NW","2970","-4950","SE","-99.6968728","39.2861099","Graham","","10/02/1953","11/04/1953","10/21/1954","OIL-P&A","Plugged and Abandoned","3823","2289","KB"," "
"1036876559","15-065-19126","KNIPP","1","DERBY OIL CO.","","Morel","9","S","21","W","12"," "," ","SE","SE","SW","330","-2970","SE","-99.6153154","39.2791777","Graham","","01/22/1950","02/05/1950","08/27/1953","OIL-P&A","Plugged and Abandoned","3703","2139","KB"," "
"1002913924","15-065-00019","BUSS 'A'","1","ANDERSON-PRICHARD OIL CORP.","","Morel","9","S","22","W","13"," "," ","SW","SW","NW","2970","-4950","SE","-99.733584","39.2714674","Graham","","07/23/1947","08/11/1947","08/11/1947","D&A","Plugged and Abandoned","3933","2322","KB"," "
"1002915093","15-065-01129","FURY 'B'","1","CITIES SERVICE OIL CO.","","Morel","9","S","21","W","19"," "," ","NE","NE","NE","4950","-330","SE","-99.6994779","39.2624211","Graham","","01/20/1950","02/06/1950","02/02/1969","OIL-P&A","Plugged and Abandoned","3856","2323","GL"," "
"1001230691","15-065-02918","FELT","1","BARNETT OIL CO., ET AL","","Morel","9","S","21","W","21","C"," ","NE","NE","SE","2310","-330","SE","-99.6621673","39.2552561","Graham","","07/09/1946","07/27/1946","03/06/1953","OIL-P&A","Plugged and Abandoned","3781","2241","GL"," "
"1001230935","15-065-01521","BUSS 'D'","2","ANDERSON-PRICHARD OIL CORP.","","Morel","9","S","22","W","13"," "," ","SW","NE","SE","1650","-990","SE","-99.7196202","39.2678994","Graham","","08/15/1951","08/24/1951","04/24/1967","OIL-P&A","Plugged and Abandoned","3802","2278","KB","Arbuckle Group"
"1006346344","15-065-02546","Hinkhouse","4","Bridgeport Oil Co.","","Morel","9","S","21","W","14"," "," ","N2","NE","NW","4950","-3300","SE","-99.6354215","39.2771842","Graham","","09/16/1948","09/26/1948","09/26/1948","D&A","Plugged and Abandoned","3802","2206","KB"," "
"1001230563","15-065-02893","Benson","3","Sohio Petroleum Co.","","Morel","9","S","21","W","15"," ","W2","E2","NW","SW","1980","-4470","SE","-99.6578883","39.2689375","Graham","","10/18/1943","11/10/1943","","OIL","Converted to SWD Well","3740","2253","DF","Arbuckle Group"
"1001230583","15-065-01388","Andreson 'A'","1","Barnett Drilling Co.","FourWinds Oil Corporation","Morel","9","S","21","W","16"," "," ","NE","NW","SE","2310","-1650","SE","-99.6668786","39.2697956","Graham","","11/19/1946","12/14/1946","","OIL","Producing","3705","2206","DF"," "
"1001230634","15-065-01417","FORGY","4","Barnett Drlg., Inc.","Murfin Drilling Co., Inc.","Morel","9","S","21","W","18"," "," ","SW","SW","NW","2970","-4950","SE","-99.7157972","39.2715381","Graham","","08/04/1951","08/17/1951","06/13/1995","OIL-P&A","Plugged and Abandoned","3830","2312","KB"," "
"1001230776","15-065-01495","FESLER 'A'","2","BRIDGEPORT OIL CO","Samson Properties, Incorporated","Morel","9","S","21","W","25","C"," ","NW","SW","NW","3630","-4950","SE","-99.6227155","39.2444193","Graham","","10/09/1943","11/15/1943","08/09/1983","OIL-P&A","Plugged and Abandoned","3784","2256","DF"," "
"1001230930","15-065-01519","BUSS 'C'","3","ANDERSON-PRICHARD OIL CORP.","","Morel","9","S","22","W","13"," "," ","SE","NE","NE","4290","-330","SE","-99.7172351","39.2751599","Graham","","08/25/1951","09/03/1951","11/22/1962","OIL-P&A","Plugged and Abandoned","3799","2274","KB","Arbuckle Group"
"1001230643","15-065-01430","SEEFELD","4","CITIES SERVICE CO","","Morel","9","S","21","W","18"," "," ","SE","NW","NE","4290","-1650","SE","-99.7041351","39.2751333","Graham","","09/15/1950","10/05/1950","11/09/1989","OIL-P&A","Converted to SWD Well","3798","2280","KB"," "
"1001230662","15-065-02506","SEEFELD","8-SWD","CITIES SERVICE CO","OXY USA Inc.","Morel","9","S","21","W","18","C"," ","SW","NE","NE","4290","-990","SE","-99.7018034","39.2751273","Graham","","01/08/1952","02/23/1952","08/06/1974","SWD-P&A","Plugged and Abandoned","4257","2260","KB"," "
"1006059563","15-065-20934","HOLLERICH","1","MURFIN DRILLING CO","","Morel","9","S","21","W","12"," "," ","E2","E2","NE","3960","-330","SE","-99.6058912","39.289246","Graham","07/18/1977","07/18/1977","07/23/1977","07/23/1977","D&A","Plugged and Abandoned","3275","2148","KB"," "
"1002914146","15-065-00226","KNIPP","1","DERBY OIL CO.","","Morel","9","S","21","W","12","C"," ","SE","SE","SW","330","-2970","SE","-99.6153154","39.2791777","Graham","","01/22/1950","02/05/1950","09/01/1953","OIL-P&A"," ","3703","2139","GL"," "
"1002914310","15-065-00382","SENESAC","1","ROCK ISLAND REFINING ET","","Morel","9","S","21","W","12"," "," ","SW","SE","NE","2970","-990","SE","-99.6082494","39.2865023","Graham","","07/22/1953","08/01/1953","08/31/1953","D&A","Plugged and Abandoned","3765","2132","KB"," "
"1033827892","15-065-01363-0001","CLACK 'A'","2","Continental Oil Co.","Citation Oil & Gas Corp.","Morel","9","S","21","W","10"," ","SE","SE","SW","SW","326","1015","SW","-99.6573134","39.2790208","Graham","","","04/20/1962","","OIL","Producing","3686","2196","DF"," "
"1001230653","15-065-01438","Sutor 'B'","5","Peel-Hardman Oil Producers","Manuel Corporation","Morel","9","S","21","W","18"," "," ","NE","NW","SE","2310","-1650","SE","-99.7041407","39.2696953","Graham","","11/09/1950","11/17/1950","07/26/2006","OIL-P&A","Plugged and Abandoned","3804","2299","KB"," "
"1001230645","15-065-01440","SUTOR 'B'","7","PEEL-HARDMAN OIL PROD","Manuel Corporation","Morel","9","S","21","W","18"," "," ","NE","SW","SE","990","-1650","SE","-99.7041444","39.26607","Graham","","01/03/1951","01/12/1951","07/26/2006","OIL-P&A","Plugged and Abandoned","3846","2327","KB"," "
"1001230721","15-065-01471","MOREL 'B'","8","CITIES SERVICE CO","Vess Oil Corporation","Morel","9","S","21","W","22"," "," ","SE","SW","NE","2970","-1650","SE","-99.6479504","39.2571684","Graham","","12/28/1951","01/05/1952","03/08/2005","OIL-P&A","Plugged and Abandoned","3781","2286","KB"," "
"1001230637","15-065-01422","FORGY","9","BARNETT DRILLING CO.","Murfin Drilling Co.","Morel","9","S","21","W","18","C"," ","NW","NE","NW","4950","-3630","SE","-99.7111282","39.276964","Graham","","09/23/1953","10/04/1953","08/23/1984","OIL-P&A","Plugged and Abandoned","3845","2323","KB"," "
"1044197635","15-065-01421-0001","Brassfield","8","Paul Bowman Oil Trust","Paul Bowman Oil Trust","Morel","9","S","21","W","18"," "," ","NW","SE","SW","990","-3630","SE","-99.7111394","39.2660881","Graham","11/21/2012","12/06/2012","02/19/2013","","OIL","Producing","3862","2337","GL","Arbuckle"
"1002914922","15-065-00964","Eberhardt","1","Barnett Oil Co.","","Morel","9","S","21","W","9"," "," ","NE","SW","NW","3630","990","SW","-99.6758659","39.287947","Graham","02/27/1957","02/28/1957","03/09/1957","03/09/1957","D&A","Plugged and Abandoned","3785","2213","KB"," "
"1001230705","15-065-01028","BENSON","1","Dane G. Hansen Trust","","Morel","9","S","21","W","21"," "," ","NW","NE","SW","2310","1650","SW","-99.6737088","39.2552082","Graham","","04/14/1950","04/26/1950","11/26/1962","OIL-P&A","Plugged and Abandoned","3786","2268","DF"," "
"1001230519","15-065-01381","LANSING KANSAS CITY UNIT (was M. KNIPP)","6","SHELL OIL CO. INC","Gore Oil Company","Morel","9","S","21","W","14"," "," ","SE","NW","SE","1650","-1650","SE","-99.6295829","39.2681548","Graham","","10/19/1948","11/11/1948","08/25/2009","OIL-P&A","Plugged and Abandoned","3823","2264","KB"," "
"1001230539","15-065-02335","Trexler, O. E.","11","Continental Oil Co.","Conoco, Inc.","Morel","9","S","21","W","15"," ","SE","NW","NW","NW","4860","-4860","SE","-99.659208","39.2768431","Graham","","04/21/1955","05/06/1955","01/06/1984","SWD-P&A","Plugged and Abandoned","4135","2178","KB"," "
"1001230561","15-065-02503","J. MOREL","3","CONTINENTAL OIL CO","","Morel","9","S","21","W","15"," "," ","NW","SE","SE","990","-990","SE","-99.6456136","39.2662579","Graham","","04/03/1943","04/17/1943","04/17/1943","D&A","Plugged and Abandoned","3939","2275","DF"," "
"1001230716","15-065-01476","SUTOR 'A'","1","PEEL-HARDMAN OIL PRDOD","B-J Oil Co.","Morel","9","S","21","W","22"," "," ","NE","NE","SE","2310","-330","SE","-99.6432842","39.2553898","Graham","","04/05/1949","04/15/1949","12/19/1989","OIL-P&A","Plugged and Abandoned","3795","2293","DF"," "
"1031938591","15-065-22844-0001","Trexler, O. E.","18","Elysium Energy, LLC","Citation Oil & Gas Corp.","Morel","9","S","21","W","15"," ","NE","SW","NW","NE","-982","-2288","NE","-99.6501336","39.2754137","Graham","","03/26/2004","06/10/2004","","OIL","Expired Plugging Application (CP-1)","3717","2221","KB","Lansing-Kansas City"
"1001230744","15-065-01489","Putnam Investment Co. 'A'","5","Continental Oil Co.","Citation Oil & Gas Corp.","Morel","9","S","21","W","23"," ","SE","NE","SW","NW","-1651","996","NW","-99.6386022","39.259036","Graham","","08/13/1947","08/30/1947","","OIL","Recompleted","3760","2272","DF"," "
"1001230743","15-065-01488","Putnam Investment Co. 'A'","3","Continental Oil Co.","Citation Oil & Gas Corp.","Morel","9","S","21","W","23"," ","SE","NW","SE","NW","-1797","1667","NW","-99.6361948","39.258791","Graham","","02/25/1944","03/26/1944","07/19/2021","OIL-P&A","Plugged and Abandoned","3814","2298","DF"," "
"1001230752","15-065-02933","Lansing Kansas City Unit (Balthazor 6)","15","Magnolia Petroleum Co.","Gore Oil Company","Morel","9","S","21","W","23"," "," ","NE","NW","NE","4950","-1650","SE","-99.6293176","39.2627107","Graham","","02/24/1949","03/17/1949","06/28/2010","OIL-P&A","Plugged and Abandoned","3771","2264","DF"," "
"1001230786","15-065-02507","Cox 'B'","2","B & R Drilling","","Morel","9","S","21","W","26"," "," ","SE","SW","NE","2998","-1750","SE","-99.6300955","39.2426648","Graham","","10/24/1950","11/10/1950","","SWD","ON LIST","4263","2286","KB"," "
"1001230990","15-065-02198","KERN 'A'","1","STERLING DRLG CO","","Morel","9","S","22","W","24"," "," ","NE","NE","SE","2310","-330","SE","-99.7173041","39.2551815","Graham","","01/24/1958","02/07/1958","02/28/1958","D&A","Plugged and Abandoned","3947","2355","KB"," "
"1001230522","15-065-01378","LANSING KANSAS CITY UNIT (was KNIPP)","3","SHELL OIL CO","Petroleum Production Management, Inc.","Morel","9","S","21","W","14"," "," ","NW","SE","SW","988","-3663","SE","-99.6366927","39.2662952","Graham","","06/24/1944","07/25/1944","06/29/1983","OIL-P&A","Plugged and Abandoned","3743","2243","KB"," "
"1006060135","15-065-21251","KERN","1","T G T PETROLEUM CORP.","TGT Petroleum Corporation","Morel","9","S","22","W","24"," "," ","SE","SW","SE","330","-1650","SE","-99.7219549","39.2497322","Graham","06/09/1980","06/27/1980","07/02/1980","07/02/1980","D&A","Plugged and Abandoned","3995","2365","KB"," "
"1002914009","15-065-00098","GROVES","1","J. D. FERRELL DRILLING CO. & M B ARMER","","Morel","9","S","21","W","5"," "," ","SE","SE","NE","3300","-330","SE","-99.6803543","39.3015593","Graham","","08/17/1949","08/28/1949","08/29/1949","D&A","Plugged and Abandoned","3871","2263","KB"," "
"1045016523","15-065-20777-0002","J. F. LOVERIDGE","7","Citation Oil & Gas Corp.","Citation Oil & Gas Corp.","Morel","9","S","21","W","10"," ","SE","NW","NW","SE","1982","-2310","SE","-99.65018","39.2835544","Graham","","03/31/2015","04/17/2015","","OIL","Producing","3734","2205","KB"," "
"1006061792","15-065-22194","CLARK","1","BROUGHER OIL, INC.","Brougher Oil, Inc.","Morel","9","S","21","W","4"," "," ","N2","SE","SW","990","-3300","SE","-99.6723101","39.2952323","Graham","05/30/1985","06/13/1985","07/03/1985","","OIL","ON LIST","3760","2203","KB","Arbuckle"
"1006060883","15-065-21678","ROME","1","YOST OIL OPERATING","Yost Oil Operations, Inc.","Morel","9","S","21","W","4"," "," ","SW","SE","SE","330","-990","SE","-99.6641646","39.2934397","Graham","07/23/1982","07/31/1982","08/08/1982","08/08/1982","D&A","Plugged and Abandoned","3750","2140","KB"," "
"1001230937","15-065-02265","BUSS 'D'","3","ANDERSON-PRICHARD OIL CORP.","","Morel","9","S","22","W","13","C"," ","NE","SE","SE","990","-330","SE","-99.7173018","39.2660963","Graham","","09/07/1951","09/17/1951","09/17/1951","D&A","Plugged and Abandoned","3890","2278","KB"," "
"1001230491","15-065-01925","EVILA DAVIGNON","1","BARNSDALL OIL CO","Bowman Oil Company, a General Partnership","Morel","9","S","21","W","11"," "," "," ","SW","SW","660","-4620","SE","-99.6400529","39.2799136","Graham","","08/19/1942","09/17/1942","05/21/2003","OIL-P&A","Plugged and Abandoned","3762","2268","DF","Kansas City Group"
"1001230627","15-065-02911","Cooley 'B'","4","Palmer Oil Corp. and Natl. Coop. Refinery Assoc.","Manuel Corporation","Morel","9","S","21","W","17"," "," ","SW","SW","NE","3016","-2370","SE","-99.6876348","39.2716426","Graham","","05/04/1950","05/22/1950","10/31/2007","OIL-P&A","Plugged and Abandoned","3780","2274","KB"," "
"1001230993","15-065-01533","MILLS","2","C-G DRILLING CO. & R.A. COOK","Vess Oil Corporation","Morel","9","S","22","W","24"," "," ","NW","SE","NE","-1650","-990","NE","-99.7196438","39.258836","Graham","07/15/1958","07/23/1958","08/02/1958","","OIL","Producing","3853","322","KB"," "
"1052619330","15-065-24218","CLACK UNIT","1","Farmer, John O., Inc.","Farmer, John O., Inc.","Morel","9","S","21","W","16"," ","N2","NE","NW","NW","-245","-4290","NE","-99.6760912","39.2773021","Graham","06/13/2022","06/22/2022","07/27/2022","","OIL","Producing","3810","2235","KB","Arbuckle"
"1001230521","15-065-01379","Knipp","4","SHELL OIL CO. INC","Gore Oil Company","Morel","9","S","21","W","14"," ","E2","NW","NE","SW","2310","-3603","SE","-99.6360923","39.2699186","Graham","","07/15/1944","10/17/1944","","OIL","Producing","3710","2232","DF"," "
"1035941011","15-065-23219","Foster-Cooley Unit","1","Prospect Oil & Gas Corp","Prospect Oil & Gas Corp","Zeig","9","S","21","W","7"," ","SW","SW","SE","NW","2880","-3780","SE","-99.710902","39.2857213","Graham","08/15/2006","","","10/20/2010","OIL-P&A","Plugged and Abandoned","3873","2260","GL","Kansas City"
"1001230444","15-065-03360","Cooley","1","B & R Drilling","","Morel","9","S","21","W","7","C"," ","SE","SW","SE","330","-1650","SE","-99.7041287","39.2788452","Graham","","02/07/1951","02/18/1951","02/18/1951","D&A","Plugged and Abandoned","3840","2261","KB"," "
"1001230445","15-065-02542","Cooley","2","C-G Drilling Co.","","Morel","9","S","21","W","7"," "," ","NE","SE","SW","990","-2970","SE","-99.7087837","39.2806458","Graham","","03/12/1954","03/20/1954","03/20/1954","D&A","Plugged and Abandoned","3878","2291","KB"," "
"1002914198","15-065-00278","Cooley","1","Peel-Hardman Oil Producers","","Morel","9","S","21","W","7"," "," ","NE","NE","SE","2310","-330","SE","-99.6994359","39.2842954","Graham","","04/02/1953","04/11/1953","07/19/1956","OIL-P&A","Plugged and Abandoned","3790","2297","KB"," "
"1030614783","15-065-22962","SWENSON 'A'","3","John O. Farmer, Inc.","Farmer, John O., Inc.","Morel","9","S","21","W","8"," ","W2","SW","SE","SE","330","-1180","SE","-99.68362","39.2788486","Graham","03/03/2004","","","","LOC","Expired Intent to Drill (C-1)","","2280","GL","Arbuckle, Lansing Kansas City"
"1006058797","15-065-20515","TEALL","1","K and E Drilling, Inc.","","Morel","9","S","21","W","8"," "," ","SE","SW","NE","2970","-1650","SE","-99.685212","39.2861006","Graham","12/21/1971","12/20/1971","12/29/1971","12/29/1971","D&A","Plugged and Abandoned","3865","2305","KB"," "
"1002914000","15-065-00089","SWENSON 'A'","1","PEEL, BARNETT, DERBY, R.W. SHIELDS","","Morel","9","S","21","W","8"," "," ","SE","SE","SE","330","-330","SE","-99.6806165","39.2788463","Graham","","07/02/1948","07/15/1948","07/15/1948","D&A","Plugged and Abandoned","3813","2233","DF"," "
"1002914824","15-065-00869","Croffett","1","Peel-Hardman Oil Operators","","Morel","9","S","21","W","28"," "," ","NE","NW","NW","-330","990","NW","-99.6759527","39.2479481","Graham","06/08/1956","06/02/1956","06/10/1956","06/10/1956","D&A","Plugged and Abandoned","3920","2318","KB"," "
"1002914099","15-065-00181","MCCLELLAN","1","C-G DRILLING CO., INC.","","Morel","9","S","21","W","28"," "," ","NW","NW","NE","-330","3300","NW","-99.6677933","39.247982","Graham","","10/04/1950","10/13/1950","10/13/1950","D&A","Plugged and Abandoned","3955","2327","KB"," "
"1006062376","15-065-22518","Cox 'A'","4","Okmar Oil Co.","Manuel Corporation","Morel","9","S","21","W","26"," "," ","E2","NE","NW","4785","-2970","SE","-99.634512","39.2475692","Graham","04/28/1989","05/04/1989","06/20/1989","11/25/1996","OIL-P&A","Plugged and Abandoned","3813","2282","KB","Arbuckle"
"1033763823","15-065-23117","LOVERIDGE","8","Elysium Energy, L.L.C.","Citation Oil & Gas Corp.","Morel","9","S","21","W","10"," ","NE","SW","SW","SE","341","-2283","SE","-99.6500942","39.2790472","Graham","11/29/2005","","","","OIL","Producing","3795","2160","GL","Arbuckle, Lansing Kansas City"
"1006058914","15-065-20579","Gosselin","1","KANSAS PETROLEUM, INC.","","Morel","9","S","21","W","10"," "," ","SW","NE","NW","4290","-3630","SE","-99.6548308","39.2899046","Graham","11/13/1972","12/02/1972","12/13/1972","11/17/1976","OIL-P&A","Plugged and Abandoned","3716","2174","KB","Arbuckle"
"1006058949","15-065-20597","J. F. LOVERIDGE","6","Continental Oil Co.","Phillips Petroleum Co.","Morel","9","S","21","W","10"," "," ","NE","NE","SE","2310","-330","SE","-99.6431815","39.2844382","Graham","03/23/1973","04/05/1973","04/16/1973","06/19/1995","OIL-P&A","Plugged and Abandoned","3818","2238","KB","Arbuckle"
"1001230483","15-065-01948","J. F. LOVERIDGE","4","Continental Oil Co.","","Morel","9","S","21","W","10"," "," ","SE","SE","SE","330","-330","SE","-99.6431931","39.2790002","Graham","","09/13/1946","10/18/1946","","OIL","Recompleted","3712","2237","KB"," "
"1001230470","15-065-01361","CLACK","2","BARNETT DRILLING CO.","Bowman Oil Company, a General Partnership","Morel","9","S","21","W","9"," "," ","NW","SE","SW","990","-3630","SE","-99.6737022","39.2807195","Graham","","04/09/1951","04/30/1951","08/28/1996","OIL-P&A","Plugged and Abandoned","3709","2190","KB"," "
"1001230473","15-065-02445","DRUMM","1","BARNETT OIL CO","","Morel","9","S","21","W","9","C"," ","SW","NW","SE","1650","-2310","SE","-99.6690063","39.2825823","Graham","","04/07/1955","04/16/1955","04/16/1955","D&A","Plugged and Abandoned","3776","2206","KB"," "
"1028139982","15-065-21979-0001","BALTHAZOR","8","HALLWOOD PET","White Eagle Resources Corp.","Morel","9","S","21","W","13"," "," ","SW","NE","SW","1650","-3630","SE","-99.6177583","39.2682372","Graham","","06/19/1995","09/28/1995","","OIL","Recompleted","3810","2194","KB","Lansing-Kansas City & Marmaton"
"1006058062","15-065-20048","EICHMAN","9","Dane G. Hansen Trust","","Morel","9","S","21","W","13"," "," ","S2","S2","NE","2970","-1320","SE","-99.6095587","39.271929","Graham","05/26/1967","05/26/1967","06/02/1967","06/02/1967","D&A","Plugged and Abandoned","3777","2193","KB"," "
"1001230497","15-065-20672","FRANK BALTHAZOR","2 TWIN","JOHN B. COLLINS","Hallwood Petroleum, Inc.","Morel","9","S","21","W","13"," "," ","NE","NE","SW","2310","-2920","SE","-99.6152308","39.2700704","Graham","04/12/1974","04/18/1974","04/25/1974","11/15/1995","OIL-P&A","Plugged and Abandoned","3775","2182","KB"," "
"1001230502","15-065-02473","EICHMAN","4","Dane G. Hansen Trust","","Morel","9","S","21","W","13","C"," ","N2","SW","NE","3630","-1980","SE","-99.6118717","39.273723","Graham","","03/23/1950","04/02/1950","09/15/1951","OIL-P&A","Plugged and Abandoned","3723","2163","KB"," "
"1031004197","15-065-01140-0001","DAVIGNON","1","F & J OIL","Meridian Energy Inc.","Morel","9","S","21","W","20"," ","NW","NW","NW","NW","4971","-5099","SE","-99.6970503","39.2624814","Graham","04/08/1977","05/01/1977","05/01/1977","09/05/2008","OIL-P&A","Plugged and Abandoned","3830","2313","KB"," "
"1001230447","15-065-01354","Cooley","1","C-G Drilling Co. and D. G. Hansen","Bowman Oil Company, a General Partnership","Morel","9","S","21","W","7"," "," ","SW","SE","SW","330","-3630","SE","-99.7111253","39.2788271","Graham","","07/27/1953","08/04/1953","04/24/1998","OIL-P&A","Plugged and Abandoned","3827","2317","KB"," "
"1034974514","15-065-00278-0001","Cooley","1","J & L Oil Co., Inc.","MEM Partnership LP, a General Partnership","Morel","9","S","21","W","7"," ","NE","NE","NE","SE","2310","-330","SE","-99.6995244","39.2842704","Graham","","10/28/1977","12/22/1977","10/23/2017","OIL-P&A","Plugged and Abandoned","2275","2267","KB"," "
"1001230783","15-065-01498","Cox 'A'","3","B & R Drilling Co.","Manuel Corporation","Morel","9","S","21","W","26","C"," ","S2","NE","NW","4290","-3300","SE","-99.6356473","39.2462088","Graham","","12/09/1948","12/22/1948","06/29/1993","OIL-P&A","Plugged and Abandoned","3807","2295","KB"," "
"1036879370","15-065-19127-0001","BRAULT","2","SINCLAIR OIL & GAS CO.","Petroleum Production Management, Inc.","Morel","9","S","21","W","13"," "," ","W2","SW","SW","330","-4620","SE","-99.621294","39.2645832","Graham","09/20/1959","09/20/1959","10/20/1959","09/16/1987","SWD-P&A","Plugged and Abandoned","4215","2204","KB"," "
"1002914145","15-065-00225","BALTHAZOR","1","HALLWOOD PETROLEUM, INC.","Hallwood Petroleum, Inc.","Morel","9","S","21","W","13"," "," ","NW","NW","SE","2310","-2310","SE","-99.6130755","39.2700878","Graham","","11/30/1949","12/12/1949","12/12/1949","OIL-P&A","Plugged and Abandoned","3733","2201","KB"," "
"1001230504","15-065-02446","EICHMAN","7","Dane G. Hansen Trust","","Morel","9","S","21","W","13","C"," ","NE","NW","NE","4950","-1650","SE","-99.610668","39.2773581","Graham","","05/08/1955","05/16/1955","05/16/1955","D&A","Plugged and Abandoned","3813","2161","KB"," "
"1006060137","15-065-21252","Hunt","1","H & H Oil Company","H & H Oil Company, a General Partnership","Morel","9","S","21","W","23"," ","N2","N2","SE","NE","3806","4620","SW","-99.6258086","39.2594105","Graham","06/11/1980","06/14/1980","06/19/1980","","OIL","Producing","3806","2289","KB"," "
"1006346145","15-065-01401","J. Morel","2","Continental Oil Co.","Citation Oil & Gas Corp.","Morel","9","S","21","W","15"," ","NE","NW","NW","SE","2325","-2310","SE","-99.6503491","39.2699092","Graham","","12/29/1942","01/21/1943","","OIL","Producing","3710","2216","DF"," "
"1001230532","15-065-02547","A. Morel","3","Continental Oil Co.","","Morel","9","S","21","W","14"," "," ","NW","SW","NW","3630","-4950","SE","-99.641247","39.2735249","Graham","","02/19/1943","03/03/1943","03/03/1943","D&A","Plugged and Abandoned","3886","2272","DF"," "
"1006061696","15-065-22139","BUSS 'C'","6","Samson Resources Co.","Paul Bowman Oil Trust","Morel","9","S","22","W","13"," ","NE","SE","SW","NE","3273","-1543","SE","-99.7212231","39.2723531","Graham","01/24/1985","02/18/1985","02/26/1985","","SWD","Authorized Injection Well","4264","2278","KB","Arbuckle"
"1006347186","15-065-01355-0001","Knipp","2","Graves Drilling Co.","HG Oil Holdings, LLC","Morel","9","S","21","W","7"," "," ","SE","SW","SW","330","990","SW","-99.7125517","39.2788234","Graham","","06/03/1969","06/03/1969","","OIL","Producing","3816","2302","KB"," "
"1033763807","15-065-23109","Buss 'G'","1","John O. Farmer, Inc.","Farmer, John O., Inc.","Morel","9","S","22","W","1"," "," ","S2","SW","SE","400","-1910","SE","-99.7228134","39.2934476","Graham","11/04/2005","11/14/2005","11/20/2005","11/20/2005","D&A","Plugged and Abandoned","3860","2200","KB","Arbuckle, Lansing Kansas City"
"1037023900","15-065-02927-0001","SUTOR","6","LANDMARK OIL & GAS, LTD.","V & F Oil Company, a General Partnership","Morel","9","S","21","W","22"," "," ","SW","NW","SW","1825","-4785","SE","-99.6590345","39.2539621","Graham","","","11/12/1981","","SWD","Authorized Injection Well","3806","2281","DF"," "
"1036244001","15-065-23269","THOMPSON","1","Blake Exploration, LLC","Blake Exploration, LLC","Morel","9","S","21","W","7"," "," ","NE","NE","NE","-330","-330","NE","-99.6993981","39.2915836","Graham","12/15/2006","02/01/2007","03/01/2007","","OIL","Converted to SWD Well","3900","2266","KB","Arbuckle"
"1001230660","15-065-01414","Forgy","1","R. W. Shields","","Morel","9","S","21","W","18","C"," ","SE","SE","SW","330","-2970","SE","-99.7088096","39.2642694","Graham","","10/19/1950","10/30/1950","08/23/1984","OIL-P&A","Plugged and Abandoned","3857","2338","KB"," "
"1001230568","15-065-03377","Trexler, O. E.","3","Continental Oil Co.","","Morel","9","S","21","W","15"," "," ","NW","SE","NW","3630","-3630","SE","-99.6548873","39.2734788","Graham","","06/27/1942","09/17/1942","","OIL","Recompleted","3692","2202","DF"," "
"1002914702","15-065-19125","Shaw","2","C-G Drilling Co.","","Morel","9","S","21","W","7"," "," ","NW","SW","NW","3630","-4950","SE","-99.7157424","39.2878784","Graham","","11/04/1955","11/15/1955","11/15/1955","D&A","Plugged and Abandoned","3858","2274","KB"," "
"1036879364","15-065-19129-0001","BALTHAZOR","2","MONSANTO OIL CO.","BHP Petroleum Company, Inc.","Morel","9","S","21","W","13"," "," ","NE","NE","SW","","","","-99.6155122","39.2700874","Graham","","","03/30/1978","05/06/1983","SWD-P&A","Plugged and Abandoned","3766","2180","KB"," "
"1038225742","15-065-01129-0002","WASINGER","1","MERIDAN ENERGY","StrataKan Exploration, LLC","Morel","9","S","21","W","19"," "," ","NE","NE","NE","-330","-330","NE","-99.6994782","39.2624327","Graham","06/24/2008","07/24/2008","10/11/2008","","OIL","Inactive Well","3858","2323","GL","Arbuckle"
"1001230573","15-065-02901","BOLAND","1","BARNETT DRILLING CO.","Farmer, John O., Inc.","Morel","9","S","21","W","16"," "," ","SE","NW","NE","4290","-1650","SE","-99.6667936","39.2752342","Graham","","03/22/1944","06/28/1944","12/09/1994","OIL-P&A","Plugged and Abandoned","3692","2184","KB","Arbuckle Group"
"1001230597","15-065-01928","Clack 'B'","2","Cities Service Oil Co.","","Morel","9","S","21","W","16"," "," ","N2","SW","NW","3630","-4620","SE","-99.6773157","39.2733521","Graham","","11/18/1950","12/11/1950","","OIL","Converted to SWD Well","3750","2204","GL","Arbuckle Group"
"1001230601","15-065-03380","BOLAND","7","BARNETT OIL CO","FourWinds Oil Corporation","Morel","9","S","21","W","16"," "," ","SW","SE","NW","2970","-3630","SE","-99.6738461","39.2715623","Graham","","06/24/1951","09/08/1951","","OIL","Producing","3709","2217","KB","Arbuckle Group"
"1001230727","15-065-02926","SUTOR","4","DERBY OIL CO. AND GLENN W. PEEL","V & F Oil Company, a General Partnership","Morel","9","S","21","W","22"," "," ","NE","SW","SW","990","-4290","SE","-99.657405","39.2517603","Graham","","10/16/1946","11/11/1946","10/02/2013","OIL-P&A","Plugged and Abandoned","3816","2293","KB"," "
"1001230595","15-065-01397","Andreson 'A'","11","Barnett Drilling Co.","Black Diamond Oil, Inc.","Morel","9","S","21","W","16"," "," ","NE","NW","SW","2310","-4290","SE","-99.6762064","39.2697341","Graham","","09/04/1952","09/16/1952","10/17/1997","OIL-P&A","Plugged and Abandoned","3783","2232","KB"," "
"1044982525","15-065-00690-0001","Shaw","1","Natl. Coop. Refinery Assoc.","","Morel","9","S","21","W","7"," "," ","NW","NW","NW","4950","-4950","SE","-99.7157234","39.2915038","Graham","","09/25/1964","10/06/1964","","OIL","Well Drilled","3817","2259","KB"," "
"1001230553","15-065-01411","Trexler, O. E.","9","Continental Oil Co.","","Morel","9","S","21","W","15"," "," ","SW","SW","NE","2955","-2357","SE","-99.6504035","39.2716393","Graham","","07/13/1947","08/27/1947","","OIL","Recompleted","3685","2209","DF"," "
"1001230586","15-065-01392","Andreson 'A'","6","Barnett Drilling Co.","Black Diamond Oil, Inc.","Morel","9","S","21","W","16"," "," ","SE","NW","SW","1650","-4290","SE","-99.6762347","39.2679212","Graham","","08/09/1948","09/02/1948","10/08/1997","OIL-P&A","Plugged and Abandoned","3723","2225","KB"," "
"1040613861","15-065-23547","Clack-Swenson 'B' Unit","1","John O. Farmer, Inc.","Farmer, John O., Inc.","Wildcat","9","S","21","W","8"," ","SW","SE","SE","NW","2700","2100","SW","-99.6907662","39.2854211","Graham","05/27/2009","06/03/2009","06/19/2009","09/27/2021","OIL-P&A","Plugged and Abandoned","3890","2311","KB","Arbuckle"
"1002915163","15-065-02433","BOLAND","4","BARNETT & SHIELDS","","Morel","9","S","21","W","16","C"," ","SE","SE","NW","2970","-2970","SE","-99.6715142","39.2715777","Graham","","04/14/1947","07/09/1947","12/01/1979","OIL-P&A","Converted to SWD Well","4142","2185","KB"," "
"1032443565","15-065-01398-0002","Andreson 'A'","12","Black Diamond Oil Co.","FourWinds Oil Corporation","Morel","9","S","21","W","16"," "," ","SW","NW","SE","1663","-2333","SE","-99.6693196","39.2680025","Graham","","08/04/1999","08/19/1999","","SWD","Authorized Injection Well","4117","2217","KB"," "
"1001230598","15-065-01927","Clack 'B'","1","Cities Service Oil Co.","OXY USA Inc.","Morel","9","S","21","W","16"," "," ","S2","SW","NW","2970","-4620","SE","-99.677344","39.2715393","Graham","","04/20/1949","05/18/1949","08/18/1999","OIL","Recompleted","3704","2204","KB","Arbuckle Group"
"1001230577","15-065-03381","DRUMM COMMISSION CO.","1","Continental Oil Co.","","Morel","9","S","21","W","16"," "," ","SE","SE","NE","-2310","-330","NE","-99.6621845","39.2717791","Graham","","01/06/1939","01/31/1939","","OIL","Recompleted","3702","2200","GL"," "
"1001230585","15-065-02898","Andreson 'A'","4","Barnett Drilling Co.","Black Diamond Oil, Inc.","Morel","9","S","21","W","16"," "," ","N2","SW","SE","990","-1980","SE","-99.6681013","39.2661622","Graham","","06/22/1947","07/12/1947","10/10/1997","OIL-P&A","Plugged and Abandoned","3713","2206","KB"," "
"1001230579","15-065-01950","DRUMM COMMISSION CO.","3","Continental Oil Co.","Citation Oil & Gas Corp.","Morel","9","S","21","W","16"," ","SE","NW","SE","NE","-1672","-957","NE","-99.6643724","39.2735061","Graham","","01/01/1947","01/31/1947","","OIL","Recompleted","3685","2198","DF"," "
"1001230589","15-065-03469","H. KOLSTE","1","CONTINENTAL OIL CO","","Morel","9","S","21","W","16"," "," ","NE","NE","SE","2310","-330","SE","-99.6622148","39.2698263","Graham","","03/20/1939","05/13/1939","03/01/1964","SWD-P&A","Plugged and Abandoned","4218","2222","DF"," "
"1030614777","15-065-01410-0001","Trexler, O. E.","8","Elysium Energy, LLC","Citation Oil & Gas Corp.","Morel","9","S","21","W","15"," ","SE","SE","SW","NW","-2331","1026","NW","-99.6573874","39.271724","Graham","","","04/13/1962","10/13/2022","OIL-P&A","Plugged and Abandoned","3703","2213","KB"," "
"1032691033","15-065-01397-0001","Andreson 'A'","11","Black Diamond Oil, Inc.","FourWinds Oil Corporation","Morel","9","S","21","W","16"," "," ","NE","NW","SW","2310","990","SW","-99.6760729","39.269735","Graham","06/06/2005","06/20/2005","07/19/2005","","OIL","Producing","3783","2232","KB","Arbuckle"
"1030667123","15-065-03381-0001","DRUMM COMMISSION CO.","1","CONTINENTAL OIL","Citation Oil & Gas Corp.","Morel","9","S","21","W","16"," ","NW","SE","SE","NE","-2310","-339","NE","-99.6622169","39.2717241","Graham","","10/27/1964","","","OIL","Producing","3702","",""," "
"1001230780","15-065-02934","FESLER 'A'","5","COOPERATIVE REFG ASSOC","","Morel","9","S","21","W","25","C"," ","SE","SW","NW","2970","-4290","SE","-99.6203885","39.2426373","Graham","","12/20/1949","02/23/1950","09/11/1956","OIL-P&A","Plugged and Abandoned","3779","2241","KB"," "
"1001230592","15-065-01952","KOLSTE","2","DERBY OIL CO.","Murfin Drilling Co.","Morel","9","S","21","W","16"," "," ","NW","NE","SE","2310","-990","SE","-99.6645467","39.269811","Graham","","12/29/1946","01/25/1947","02/14/1984","OIL-P&A","Plugged and Abandoned","3732","2215","DF"," "
"1036917194","15-065-02894-0001","Benson","4","Sohio Petroleum Co.","","Morel","9","S","21","W","15"," "," ","NE","SW","SW","1080","-4010","SE","-99.6562814","39.2664708","Graham","","","02/28/1968","09/09/1977","SWD-P&A","Plugged and Abandoned","3917","2273","DF"," "
"1040608533","15-065-23542","Boland","9","Black Diamond Oil, Inc.","FourWinds Oil Corporation","Morel","9","S","21","W","16"," "," ","E2","SW","NE","-1980","-1650","NE","-99.666775","39.2725812","Graham","05/11/2009","05/22/2009","06/08/2009","08/22/2023","OIL-P&A","Plugged and Abandoned","3620","2208","KB","Arbuckle"
"1052048821","15-065-24203","DESAIR UNIT","1","Farmer, John O., Inc.","Farmer, John O., Inc.","Morel","9","S","21","W","8"," ","SW","SW","SE","NE","2720","-1235","SE","-99.6837521","39.2854128","Graham","08/06/2021","09/01/2021","09/29/2021","","OIL","Producing","3870","2286","KB","Arbuckle"
"1001230633","15-065-01416","FORGY","3","RW SHIELDS OIL COMPANY","Murfin Drilling Co.","Morel","9","S","21","W","18","C"," ","NE","SE","NW","3630","-2970","SE","-99.7088003","39.2733327","Graham","","06/16/1951","06/25/1951","08/23/1984","OIL-P&A","Plugged and Abandoned","3836","2317","KB"," "
"1006060616","15-065-21528","Forgy","14","Murfin Drilling Co., Inc.","Murfin Drilling Co., Inc.","Morel","9","S","21","W","18"," "," ","SW","SE","SW","330","-3630","SE","-99.7111413","39.2642754","Graham","10/23/1981","11/07/1981","11/14/1981","06/13/1995","OIL-P&A","Plugged and Abandoned","3940","2332","KB"," "
"1001230651","15-065-02554","SUTOR 'B'","8","PEEL HARDMAN OIL PRODUCERS","Okmar Oil Company","Morel","9","S","21","W","18","C"," ","SW","NW","SE","1650","-2310","SE","-99.7064742","39.2678887","Graham","","01/24/1951","02/05/1951","01/16/1989","SWD-P&A","Plugged and Abandoned","4050","2305","KB"," "
"1001230514","15-065-01372","BRAULT","3","HARBAR DRLG CO","","Morel","9","S","21","W","14","C"," ","SW","NE","SE","1650","-990","SE","-99.6272512","39.2681683","Graham","","02/26/1949","04/11/1949","","OIL","Well Drilled","3779","2251","DF"," "
"1030386440","15-065-01435-0001","Sutor 'B'","2","Berexco LLC","BEREXCO LLC","Morel","9","S","21","W","18"," "," ","NW","SE","SE","846","-1104","SE","-99.7018057","39.266042","Graham","","","12/30/1980","","SWD","Authorized Injection Well","4066","2312","KB"," "
"1028008102","15-065-02883-0001","LOVERIDGE","3","ELYSIUM ENERGY, LLC","Elysium Energy, L.L.C.","Morel","9","S","21","W","10"," "," ","SE","SW","SE","330","-1650","SE","-99.6478575","39.2790115","Graham","","11/18/2002","11/28/2002","12/10/2004","OIL-P&A","Plugged and Abandoned","3788","2210","KB","Arbuckle, Lansing-Kansas City"
"1002914640","15-065-00690","Shaw","1","Natl. Coop. Refinery Assoc.","","Morel","9","S","21","W","7"," "," ","NW","NW","NW","4950","-4950","SE","-99.7157234","39.2915038","Graham","","05/29/1955","06/12/1955","","OIL","Recompleted","3817","2259","KB"," "
"1002915135","15-065-01423","Forgy","10","Barnett Drilling Co.","Murfin Drilling Co.","Morel","9","S","21","W","18"," "," ","NE","NW","NW","4950","-4290","SE","-99.7134599","39.27697","Graham","","02/14/1954","02/27/1954","08/23/1984","OIL-P&A","Plugged and Abandoned","3844","2324","KB"," "
"1042547431","15-065-01441-0001","Sutor 'B'","9","Meridian Energy Inc.","Meridian Energy Inc.","Morel","9","S","21","W","18"," "," ","NE","NE","SE","2310","-330","SE","-99.6994773","39.2696833","Graham","06/22/2010","07/08/2010","09/25/2010","","OIL","Producing","3827","2303","GL","Arbuckle"
"1001230659","15-065-01415","FORGY","2","RW SHIELDS OIL COMPANY","Murfin Drilling Co.","Morel","9","S","21","W","18","C"," ","SE","SW","SW","330","-4290","SE","-99.7134729","39.2642814","Graham","","04/03/1951","04/12/1951","08/23/1984","OIL-P&A","Plugged and Abandoned","3847","2320","KB"," "
"1001230664","15-065-01432","SEEFELD","6","CITIES SERVICE CO","","Morel","9","S","21","W","18","C"," ","NW","SW","NE","3630","-2310","SE","-99.7064686","39.2733267","Graham","","11/08/1950","11/16/1950","09/11/1963","OIL-P&A","Plugged and Abandoned","3843","2308","KB"," "
"1002914242","15-065-00319","Sutor 'B'","1","Peel-Hardman Oil Producers","","Morel","9","S","21","W","18"," "," ","SE","SE","SE","330","-330","SE","-99.6994829","39.2642453","Graham","","12/05/1949","12/31/1949","","OIL","Converted to SWD Well","3840","2301","KB"," "
"1002915136","15-065-01439","SUTOR 'B'","6","PEEL-HARDMAN","","Morel","9","S","21","W","18"," "," ","SW","SW","SE","330","-2310","SE","-99.7064779","39.2642634","Graham","","11/16/1950","11/27/1950","06/14/1958","OIL-P&A","Plugged and Abandoned","3864","2332","KB"," "
"1002915137","15-065-01441","SUTOR 'B'","9","PEEL-HARDMAN","Okmar Oil Company","Morel","9","S","21","W","18"," "," ","NE","NE","SE","2310","-333","SE","-99.6994879","39.2696833","Graham","","10/26/1955","11/18/1955","05/08/1990","OIL-P&A","Plugged and Abandoned","3804","2304","KB"," "
"1001230655","15-065-01425","Forgy","12","R. W. Shields","","Morel","9","S","21","W","18"," "," ","S2","NE","SW","1650","-3300","SE","-99.7099717","39.2678977","Graham","10/04/1956","10/05/1956","10/13/1956","12/14/1995","OIL-P&A","Converted to SWD Well","3859","2336","KB"," "
"1030386436","15-065-01425-0001","Forgy","12","Murfin Drilling Co., Inc.","Murfin Drilling Co., Inc.","Morel","9","S","21","W","18"," "," ","S2","NE","SW","1650","-3300","SE","-99.7099717","39.2678977","Graham","","10/05/1956","05/19/1972","12/14/1994","SWD-P&A","Plugged and Abandoned","4080","2336","KB"," "
"1001230657","15-065-01421","FORGY","8","BARNETT DRILLING INC","Murfin Drilling Co.","Morel","9","S","21","W","18"," "," ","NW","SE","SW","990","-3630","SE","-99.7111394","39.2660881","Graham","","05/18/1953","05/30/1953","01/30/1990","OIL-P&A","Plugged and Abandoned","3857","2342","KB"," "
"1001230650","15-065-01435","Sutor 'B'","2","Peel-Hardman Oil Producers","","Morel","9","S","21","W","18"," "," ","NW","SE","SE","846","-1104","SE","-99.7022159","39.2656696","Graham","","02/18/1950","02/28/1950","","OIL","Converted to SWD Well","3890","2312","DF"," "
"1046798310","15-065-24149","MCFARLAND","2","American Oil LLC","StrataKan Exploration, LLC","Morel","9","S","21","W","18"," ","W2","SE","NE","NE","-990","-430","NE","-99.6998252","39.2752311","Graham","04/23/2018","05/01/2018","09/01/2018","","OIL","Inactive Well","3860","2277","KB","Arbuckle"
"1001230541","15-065-02682","TREXLER, O. E.","14","Continental Oil Co.","Citation Oil & Gas Corp.","Morel","9","S","21","W","15"," "," ","S2","N2","N2","4250","-2687","SE","-99.6511471","39.2752403","Graham","","08/09/1963","09/10/1963","","SWD","Authorized Injection Well","4097","2221","KB"," "
"1006061282","15-065-21900","Trexler, O. E.","15","Conoco, Inc.","Conoco, Inc.","Morel","9","S","21","W","15"," ","NW","NE","SE","NW","3686","-3025","SE","-99.6527487","39.2736395","Graham","11/15/1983","11/23/1983","12/08/1983","12/08/1983","D&A","Plugged and Abandoned","3800","2206","KB"," "
"1003082129","15-065-22180","BUSS 'C'","7","SAMSON RESOURCES CO","Samson Properties, Incorporated","Morel","9","S","22","W","13"," ","NE","NW","SW","NE","3800","-2000","SE","-99.723145","39.2737898","Graham","04/18/1985","","11/14/1985","","LOC","Expired Intent to Drill (C-1)","","2282","GL"," "
"1046809797","15-065-02506-0001","MCFARLAND","3","American Oil LLC","Patterson Energy LLC","Morel","9","S","21","W","18"," "," ","SW","NE","NE","-990","-990","NE","-99.701804","39.2752259","Graham","06/07/2018","","","","INTENT","Approved Intent to Drill","","2261","GL","Arbuckle"
"1002915167","15-065-02565","FESLER 'A'","3","BRIDGEPORT","","Morel","9","S","21","W","25"," "," ","NW","NE","NW","4950","-3630","SE","-99.6180464","39.2481063","Graham","","10/21/1943","11/05/1943","11/05/1943","D&A","Plugged and Abandoned","3839","2237","DF"," "
"1006062383","15-065-22522","Cox 'C'","2","J. B. Collins","Patterson Energy LLC","Morel","9","S","21","W","26"," "," ","NW","NW","NE","4950","-2310","SE","-99.6321913","39.2480243","Graham","06/01/1989","06/02/1989","06/24/1989","","OIL","Producing","3832","2272","KB"," "
"1001230760","15-065-02485","ADDIE R. LOE","1","AMERADA PETROLEUM CORP","","Morel","9","S","21","W","24"," "," ","SE","SE","NE","2970","-330","SE","-99.6062541","39.2573348","Graham","","02/03/1950","02/14/1950","02/14/1950","D&A","Plugged and Abandoned","3996","2261","KB"," "
"1046797229","15-065-24136-0001","DEYOUNG","1-24","American Oil LLC","Patterson Energy LLC","Morel","9","S","21","W","24"," ","SE","NW","SW","NE","3405","-2110","SE","-99.6123881","39.258472","Graham","","","","","SWD","Authorized Injection Well","4000","2257","KB"," "
"1027629605","15-065-01405-0001","Trexler, O. E.","2","Elysium Energy, LLC","Citation Oil & Gas Corp.","Morel","9","S","21","W","15"," ","NE","NW","SW","NW","-1632","342","NW","-99.6597755","39.2736499","Graham","","09/16/2002","10/07/2002","","OIL","Producing","3700","2204","DF","Arbuckle, Lansing-Kansas City"
"1027635108","15-065-22263-0001","Cooley 'B'","18","Natl. Coop. Refinery Assoc.","BEREXCO LLC","Morel","9","S","21","W","17"," "," ","NW","SE","NW","3630","-3630","SE","-99.6923461","39.2733156","Graham","","03/02/1990","03/13/1990","","OIL","Producing","3789","2294","KB","Lansing-Kansas City"
"1027635109","15-065-22159-0001","Cooley 'B'","16","Natl. Coop. Refinery Assoc.","BEREXCO LLC","Morel","9","S","21","W","17"," "," ","SE","NW","NE","4290","-1650","SE","-99.6853262","39.2751399","Graham","","02/08/1990","02/16/1990","","OIL","Producing","3742","2254","KB"," "
"1001230559","15-065-02890","Benson","1","Nathan Appleman","BEREXCO LLC","Morel","9","S","21","W","15"," "," ","NW","NE","SW","2310","-3630","SE","-99.654914","39.2698534","Graham","","09/21/1942","10/10/1942","","OIL","Producing","3740","2252","DF","Arbuckle Group"
"1044262296","15-065-23936","Putnam Inv","8","Citation Oil and Gas Corp.","Citation Oil & Gas Corp.","Morel","9","S","21","W","23"," ","W2","SE","SW","NW","-2310","886","NW","-99.638983","39.2572106","Graham","05/17/2013","05/31/2013","07/31/2013","","OIL","Producing","3880","2305","KB"," "
"1044261999","15-065-23932","Drumm Co.","7","Citation Oil & Gas Corp.","Citation Oil & Gas Corp.","Morel","9","S","21","W","16"," ","SW","NE","SE","NE","-1800","-342","NE","-99.662205","39.2731796","Graham","05/16/2013","05/21/2013","06/28/2013","","OIL","Producing","3775","2203","KB","Arbuckle"
"1001230523","15-065-01382","LANSING KANSAS CITY UNIT (was KNIPP)","7","SHELL OIL CO. INC","Gore Oil Company","Morel","9","S","21","W","14"," "," ","SE","NE","SW","1648","2310","SW","-99.6338542","39.2681189","Graham","","11/07/1948","12/01/1948","","OIL","Producing","3807","2247","DF"," "
"1001230524","15-065-01383","LANSING KANSAS CITY UNIT (was M. KNIPP)","8","SHELL OIL CO. INC.","Gore Oil Company","Morel","9","S","21","W","14"," "," ","SE","SE","SW","330","-2970","SE","-99.6338504","39.2644936","Graham","","11/27/1948","12/21/1948","","OIL","Producing","3837","2272","KB"," "
"1001230711","15-065-01478","SUTOR 'A'","3","PEEL-HARDMAN OIL PRODUCERS","B-J Oil Co.","Morel","9","S","21","W","22"," "," ","SE","NE","SE","1650","-330","SE","-99.6432803","39.2535771","Graham","05/08/1957","05/08/1957","05/17/1957","12/27/1989","OIL-P&A","Plugged and Abandoned","3801","2294","KB"," "
